{
"type": "FeatureCollection",
"crs": { "type": "name", "properties": { "name": "urn:ogc:def:crs:OGC:1.3:CRS84" } },
                                                                                
"features": [
{ "type": "Feature", "properties": { "full_name": "Boston Harbor Islands National Recreation Area", "state": "Massachusetts", "url": "http:\/\/www.nps.gov\/boha\/index.htm", "address": "408 Atlantic Avenue, Suite 228 \nBoston, MA 02110", "phone": "(617) 223-8666" }, "geometry": { "type": "Point", "coordinates": [ -70.939400581722523, 42.309034662374131 ] } },
{ "type": "Feature", "properties": { "full_name": "Minute Man National Historical Park", "state": "Massachusetts", "url": "http:\/\/www.nps.gov\/mima\/index.htm", "address": "174 Liberty St. \nConcord, MA 01742", "phone": "(978) 369-6993" }, "geometry": { "type": "Point", "coordinates": [ -71.307385394251014, 42.456276445536034 ] } },
{ "type": "Feature", "properties": { "full_name": "Lowell National Historical Park", "state": "Massachusetts", "url": "http:\/\/www.nps.gov\/lowe\/index.htm", "address": "67 Kirk Street \nLowell, MA 01852", "phone": "(978) 970-5000" }, "geometry": { "type": "Point", "coordinates": [ -71.315886664166598, 42.645536359043426 ] } },
{ "type": "Feature", "properties": { "full_name": "Frederick Law Olmsted National Historic Site", "state": "Massachusetts", "url": "http:\/\/www.nps.gov\/frla\/index.htm", "address": "99 Warren Street \nBrookline, Massachusetts 02445", "phone": "(617) 566-1689" }, "geometry": { "type": "Point", "coordinates": [ -71.131129600193418, 42.325508245589987 ] } },
{ "type": "Feature", "properties": { "full_name": "John F Kennedy National Historic Site", "state": "Massachusetts", "url": "http:\/\/www.nps.gov\/jofi\/index.htm", "address": "83 Beals Street \nBrookline, Massachusetts 02446", "phone": "(617) 566-7937" }, "geometry": { "type": "Point", "coordinates": [ -71.123238523260056, 42.346936958869961 ] } },
{ "type": "Feature", "properties": { "full_name": "Adams National Historical Park", "state": "Massachusetts", "url": "http:\/\/www.nps.gov\/adam\/index.htm", "address": "135 Adams Street \nQuincy, MA 02169", "phone": "(617) 770-1175" }, "geometry": { "type": "Point", "coordinates": [ -71.011603366397509, 42.255395847857997 ] } },
{ "type": "Feature", "properties": { "full_name": "Cape Cod National Seashore", "state": "Massachusetts", "url": "http:\/\/www.nps.gov\/caco\/index.htm", "address": "99 Marconi Site Road \nWellfleet, MA 02667", "phone": "(508) 771-2144" }, "geometry": { "type": "Point", "coordinates": [ -70.045142644532078, 41.934867263767039 ] } },
{ "type": "Feature", "properties": { "full_name": "Boston African American National Historic Site", "state": "Massachusetts", "url": "http:\/\/www.nps.gov\/boaf\/index.htm", "address": "14 Beacon Street \nSuite 401 \nBoston, MA 02108", "phone": "(617) 742-5415" }, "geometry": { "type": "Point", "coordinates": [ -71.067641885219373, 42.359083026136624 ] } },
{ "type": "Feature", "properties": { "full_name": "Springfield Armory National Historic Site", "state": "Massachusetts", "url": "http:\/\/www.nps.gov\/spar\/index.htm", "address": "One Armory Square, Suite 2 \nSpringfield, Massachusetts 01105-1299", "phone": "(413) 734-8551\n" }, "geometry": { "type": "Point", "coordinates": [ -72.579674153093251, 42.10863670802074 ] } },
{ "type": "Feature", "properties": { "full_name": "Roger Williams National Memorial", "state": "Rhode Island", "url": "http:\/\/www.nps.gov\/rowi\/index.htm", "address": "282 North Main Street \nProvidence, RI 02903", "phone": "(401) 521-7266\n" }, "geometry": { "type": "Point", "coordinates": [ -71.410566772745227, 41.829895622900679 ] } },
{ "type": "Feature", "properties": { "full_name": "Saugus Iron Works National Historic Site", "state": "Massachusetts", "url": "http:\/\/www.nps.gov\/sair\/index.htm", "address": "244 Central Street \nSaugus, MA 01906", "phone": "(781) 233-0050 \n" }, "geometry": { "type": "Point", "coordinates": [ -71.007678826866211, 42.468312508312472 ] } },
{ "type": "Feature", "properties": { "full_name": "Salem Maritime National Historic Site", "state": "Massachusetts", "url": "http:\/\/www.nps.gov\/sama\/index.htm", "address": "160 Derby Street \nSalem, MA 01970", "phone": "(978) 740-1650\n" }, "geometry": { "type": "Point", "coordinates": [ -70.88640818415989, 42.520244620367372 ] } },
{ "type": "Feature", "properties": { "full_name": "Boston National Historical Park", "state": "Massachusetts", "url": "http:\/\/www.nps.gov\/bost\/index.htm", "address": "Charlestown Navy Yard \nBoston, MA 02129", "phone": "(617) 242-5642" }, "geometry": { "type": "Point", "coordinates": [ -71.055366805078478, 42.369569436595761 ] } },
{ "type": "Feature", "properties": { "full_name": "Longfellow House Washington's Headquarters National Historic Site", "state": "Massachusetts", "url": "http:\/\/www.nps.gov\/long\/index.htm", "address": "105 Brattle Street \nCambridge, MA 02138", "phone": "(617) 876-4491" }, "geometry": { "type": "Point", "coordinates": [ -71.126369589322749, 42.37698842530471 ] } }
]
}
