{
  "type": "FeatureCollection",
  "features": [
    {
      "type": "Feature",
      "properties": {
        "marker-color": "#7e7e7e",
        "marker-size": "medium",
        "marker-symbol": "",
        "name": "Fort Foote",
        "url": "places/fort-foote.htm",
        "location": "Fort Foote Road & Jessica Drive"
      },
      "geometry": {
        "type": "Point",
        "coordinates": [
          -77.029287815094,
          38.7704217152944
        ]
      }
    },
    {
      "type": "Feature",
      "properties": {
        "marker-color": "#7e7e7e",
        "marker-size": "medium",
        "marker-symbol": "",
        "name": "Fort Greble",
        "url": "places/fort-greble-and-battery-carroll.htm",
        "location": "First & Elmira Streets SW near Martin Luther King, Jr. Boulevard SW"
      },
      "geometry": {
        "type": "Point",
        "coordinates": [
          -77.0146644115448,
          38.827171417223546
        ]
      }
    },
    {
      "type": "Feature",
      "properties": {
        "marker-color": "#7e7e7e",
        "marker-size": "medium",
        "marker-symbol": "",
        "name": "Battery Carroll",
        "url": "places/fort-greble-and-battery-carroll.htm",
        "location": "South Capitol Street & Martin Luther King, Jr. Boulevard SW"
      },
      "geometry": {
        "type": "Point",
        "coordinates": [
          -77.00768530368805,
          38.83614337970781
        ]
      }
    },
    {
      "type": "Feature",
      "properties": {
        "marker-color": "#7e7e7e",
        "marker-size": "medium",
        "marker-symbol": "",
        "name": "Fort Stanton",
        "url": "places/fort-stanton.htm",
        "location": "W Street SE, Good Hope Road SE & Fort Place SE"
      },
      "geometry": {
        "type": "Point",
        "coordinates": [
          -76.97881937026978,
          38.858816884368316
        ]
      }
    },
    {
      "type": "Feature",
      "properties": {
        "marker-color": "#7e7e7e",
        "marker-size": "medium",
        "marker-symbol": "",
        "name": "Fort Ricketts",
        "url": "places/fort-ricketts.htm",
        "location": "W Street SE, Good Hope Road SE, & Fort Place SE"
      },
      "geometry": {
        "type": "Point",
        "coordinates": [
          -76.97558999061583,
          38.85781433926346
        ]
      }
    },
    {
      "type": "Feature",
      "properties": {
        "marker-color": "#7e7e7e",
        "marker-size": "medium",
        "marker-symbol": "",
        "name": "Fort Dupont",
        "url": "places/fort-dupont.htm",
        "location": "Bounded by Alabama, Massachusetts, Minnesota Avenues SE, Ridge Road SE, and Ely Place SE; historic fort entrance on Alabama Avenue SE."
      },
      "geometry": {
        "type": "Point",
        "coordinates": [
          -76.95155739784241,
          38.877545169772574
        ]
      }
    },
    {
      "type": "Feature",
      "properties": {
        "marker-color": "#7e7e7e",
        "marker-size": "medium",
        "marker-symbol": "",
        "name": "Fort Davis",
        "url": "places/fort-davis.htm",
        "location": "Pennsylvania Ave. & Alabama Ave. SE"
      },
      "geometry": {
        "type": "Point",
        "coordinates": [
          -76.95151448249817,
          38.86654436183219
        ]
      }
    },
    {
      "type": "Feature",
      "properties": {
        "marker-color": "#7e7e7e",
        "marker-size": "medium",
        "marker-symbol": "",
        "name": "Fort Chaplin",
        "url": "places/fort-chaplin.htm",
        "location": "East Capitol St. & Texas Ave. SE"
      },
      "geometry": {
        "type": "Point",
        "coordinates": [
          -76.94332838058472,
          38.88824363876782
        ]
      }
    },
    {
      "type": "Feature",
      "properties": {
        "marker-color": "#7e7e7e",
        "marker-size": "medium",
        "marker-symbol": "",
        "name": "Fort Mahan",
        "url": "places/fort-mahan.htm",
        "location": "Benning Rd. & 42nd St. NE"
      },
      "geometry": {
        "type": "Point",
        "coordinates": [
          -76.9448733329773,
          38.895274854133035
        ]
      }
    },
    {
      "type": "Feature",
      "properties": {
        "marker-color": "#7e7e7e",
        "marker-size": "medium",
        "marker-symbol": "",
        "name": "Fort Bunker Hill",
        "url": "places/fort-bunker-hill.htm",
        "location": "13th St. & Otis St. NE"
      },
      "geometry": {
        "type": "Point",
        "coordinates": [
          -76.98762774467468,
          38.93541126067273
        ]
      }
    },
    {
      "type": "Feature",
      "properties": {
        "marker-color": "#7e7e7e",
        "marker-size": "medium",
        "marker-symbol": "",
        "name": "Fort Totten",
        "url": "places/fort-totten.htm",
        "location": "Fort Totten Drive & Gallatin St. NE. Adjacent to Fort Totten Metro station."
      },
      "geometry": {
        "type": "Point",
        "coordinates": [
          -77.00449347496033,
          38.948529137984934
        ]
      }
    },
    {
      "type": "Feature",
      "properties": {
        "marker-color": "#7e7e7e",
        "marker-size": "medium",
        "marker-symbol": "",
        "name": "Fort Slocum",
        "url": "places/fort-slocum.htm",
        "location": "Kansas Ave. & Madison St. NW."
      },
      "geometry": {
        "type": "Point",
        "coordinates": [
          -77.01456785202025,
          38.960042831237054
        ]
      }
    },
    {
      "type": "Feature",
      "properties": {
        "marker-color": "#7e7e7e",
        "marker-size": "medium",
        "marker-symbol": "",
        "name": "Fort Stevens",
        "url": "places/fort-stevens.htm",
        "location": "Piney Branch Rd. & Quackenbos Road NW."
      },
      "geometry": {
        "type": "Point",
        "coordinates": [
          -77.03111171722412,
          38.9706537960916
        ]
      }
    },
    {
      "type": "Feature",
      "properties": {
        "marker-color": "#7e7e7e",
        "marker-size": "medium",
        "marker-symbol": "cemetery",
        "name": "Battleground National Cemetery",
        "url": "places/battleground-national-cemetery.htm",
        "location": "Georgia Ave & Whittier St. NW."
      },
      "geometry": {
        "type": "Point",
        "coordinates": [
          -77.02668070793152,
          38.970687161398736
        ]
      }
    },
    {
      "type": "Feature",
      "properties": {
        "marker-color": "#7e7e7e",
        "marker-size": "medium",
        "marker-symbol": "",
        "name": "Fort DeRussy",
        "url": "places/fort-derussy.htm",
        "location": "Military Rd. & Oregon Ave. NW."
      },
      "geometry": {
        "type": "Point",
        "coordinates": [
          -77.05082058906555,
          38.96325465106006
        ]
      }
    },
    {
      "type": "Feature",
      "properties": {
        "marker-color": "#7e7e7e",
        "marker-size": "medium",
        "marker-symbol": "",
        "name": "Fort Reno",
        "url": "places/fort-reno.htm",
        "location": "Chesapeake St. & 40th St. NW."
      },
      "geometry": {
        "type": "Point",
        "coordinates": [
          -77.07837224006653,
          38.95126589540561
        ]
      }
    },
    {
      "type": "Feature",
      "properties": {
        "marker-color": "#7e7e7e",
        "marker-size": "medium",
        "marker-symbol": "",
        "name": "Fort Bayard",
        "url": "places/fort-bayard.htm",
        "location": "Western Ave. & River Rd. NW."
      },
      "geometry": {
        "type": "Point",
        "coordinates": [
          -77.0915687084198,
          38.95537083340688
        ]
      }
    },
    {
      "type": "Feature",
      "properties": {
        "marker-color": "#7e7e7e",
        "marker-size": "medium",
        "marker-symbol": "",
        "name": "Battery Kemble",
        "url": "places/battery-kemble.htm",
        "location": "Chain Bridge Road NW."
      },
      "geometry": {
        "type": "Point",
        "coordinates": [
          -77.09570467472075,
          38.929978146647116
        ]
      }
    },
    {
      "type": "Feature",
      "properties": {
        "marker-color": "#7e7e7e",
        "marker-size": "medium",
        "marker-symbol": "",
        "name": "Fort Marcy",
        "url": "places/fort-marcy.htm",
        "location": "George Washington Memorial Parkway south of Chain Bridge Rd. interchange."
      },
      "geometry": {
        "type": "Point",
        "coordinates": [
          -77.1253913640976,
          38.934355549897184
        ]
      }
    }
  ]
}
