{
  "type": "FeatureCollection",
  "features": [
    {
      "type": "Feature",
      "properties": {
        "park": "Yellowstone",
        "name": "West Yellowstoneowstone",
        "type": "community",
        "importance": 1
      },
      "geometry": {
        "type": "Point",
        "coordinates": [
          -111.10548119448816,
          44.66303146382445
        ]
      }
    },
    {
      "type": "Feature",
      "properties": {
        "park": "Yellowstone",
        "name": "Big Sky",
        "type": "community",
        "importance": 2
      },
      "geometry": {
        "type": "Point",
        "coordinates": [
          -111.37672610907077,
          45.28575955949011
        ]
      }
    },
    {
      "type": "Feature",
      "properties": {
        "park": "Yellowstone",
        "name": "Livingston",
        "type": "community",
        "importance": 2
      },
      "geometry": {
        "type": "Point",
        "coordinates": [
          -110.55856071596249,
          45.66024057156556
        ]
      }
    },
    {
      "type": "Feature",
      "properties": {
        "park": "Yellowstone",
        "name": "Bozeman",
        "type": "community",
        "importance": 2
      },
      "geometry": {
        "type": "Point",
        "coordinates": [
          -111.05455082065923,
          45.679530340629974
        ]
      }
    },
    {
      "type": "Feature",
      "properties": {
        "park": "Yellowstone",
        "name": "Big Timber",
        "type": "community",
        "importance": 2
      },
      "geometry": {
        "type": "Point",
        "coordinates": [
          -109.94948130552699,
          45.83795200431788
        ]
      }
    },
    {
      "type": "Feature",
      "properties": {
        "park": "Yellowstone",
        "name": "Billings",
        "type": "community",
        "importance": 2
      },
      "geometry": {
        "type": "Point",
        "coordinates": [
          -108.54788628794586,
          45.77836369915484
        ]
      }
    },
    {
      "type": "Feature",
      "properties": {
        "park": "Yellowstone",
        "name": "Belgrade",
        "type": "community",
        "importance": 2
      },
      "geometry": {
        "type": "Point",
        "coordinates": [
          -111.17654479614117,
          45.77960577237168
        ]
      }
    },
    {
      "type": "Feature",
      "properties": {
        "park": "Yellowstone",
        "name": "Red Lodge",
        "type": "community",
        "importance": 2
      },
      "geometry": {
        "type": "Point",
        "coordinates": [
          -109.25046473068502,
          45.18650576397867
        ]
      }
    },
    {
      "type": "Feature",
      "properties": {
        "park": "Yellowstone",
        "name": "Cody",
        "type": "community",
        "importance": 2
      },
      "geometry": {
        "type": "Point",
        "coordinates": [
          -109.04209545869395,
          44.528787693428896
        ]
      }
    },
    {
      "type": "Feature",
      "properties": {
        "park": "Yellowstone",
        "name": "Powell",
        "type": "community",
        "importance": 2
      },
      "geometry": {
        "type": "Point",
        "coordinates": [
          -108.75714602691124,
          44.7562394471094
        ]
      }
    },
    {
      "type": "Feature",
      "properties": {
        "park": "Grand Teton",
        "name": "Jackson",
        "type": "community",
        "importance": 1
      },
      "geometry": {
        "type": "Point",
        "coordinates": [
          -110.76692998795356,
          43.47904030885518
        ]
      }
    },
    {
      "type": "Feature",
      "properties": {
        "park": "Grand Teton",
        "name": "Driggs",
        "type": "community",
        "importance": 2
      },
      "geometry": {
        "type": "Point",
        "coordinates": [
          -111.1088693060928,
          43.7292248006534
        ]
      }
    },
    {
      "type": "Feature",
      "properties": {
        "park": "Grand Teton",
        "name": "Idaho Falls",
        "type": "community",
        "importance": 2
      },
      "geometry": {
        "type": "Point",
        "coordinates": [
          -112.06021939569203,
          43.49898427942603
        ]
      }
    },
    {
      "type": "Feature",
      "properties": {
        "park": "Yellowstone",
        "name": "Cooke City",
        "type": "community",
        "importance": 2
      },
      "geometry": {
        "type": "Point",
        "coordinates": [
          -109.93520736694335,
          45.020398484251274
        ]
      }
    },
    {
      "type": "Feature",
      "properties": {
        "park": "Yellowstone",
        "name": "Gardiner",
        "type": "community",
        "importance": 1
      },
      "geometry": {
        "type": "Point",
        "coordinates": [
          -110.71077346801758,
          45.03544263020232
        ]
      }
    }
  ]
}