{"type":"FeatureCollection","features":[{"type":"Feature","properties":{"UNIT_CODE":"ACAD","UNIT_NAME":"Acadia National Park","EVENT_NAME":"2016 National Parks BioBlitz - Acadia Lepidoptera BioBlitz","STATE":"ME","DATE":"Fri. July 22 - Sun. July 24, 2016","PARK_URL":"https://www.nps.gov/acad","INAT_URL":"http://www.inaturalist.org/projects/2016-national-parks-bioblitz-acadia-lepidoptera-bioblitz"},"geometry":{"type":"Point","coordinates":[-68.24410999,44.3507318]}},{"type":"Feature","properties":{"UNIT_CODE":"ANTI","UNIT_NAME":"Antietam National Battlefield","EVENT_NAME":"2016 National Parks BioBlitz - Antietam: Grassland Birds","STATE":"MD","DATE":"Sat. May 21, 2016","PARK_URL":"https://www.nps.gov/anti","INAT_URL":"http://www.inaturalist.org/projects/2016-national-parks-bioblitz-antietam-grassland-birds"},"geometry":{"type":"Point","coordinates":[-77.7380518,39.47010671]}},{"type":"Feature","properties":{"UNIT_CODE":"APCO","UNIT_NAME":"Appomattox Court House National Historical Park","EVENT_NAME":"2016 National Parks BioBlitz - Explore the Natural Side of Appomattox Court House","STATE":"VA","DATE":"Sat. May 21, 2016","PARK_URL":"https://www.nps.gov/apco","INAT_URL":"http://www.inaturalist.org/projects/2016-national-parks-bioblitz-explore-the-natural-side-of-appomattox-court-house"},"geometry":{"type":"Point","coordinates":[-78.80089447,37.38274761]}},{"type":"Feature","properties":{"UNIT_CODE":"APIS","UNIT_NAME":"Apostle Islands National Lakeshore","EVENT_NAME":"2016 National Parks BioBlitz - Apostle Islands","STATE":"WI","DATE":"Sat. June 4, 2016","PARK_URL":"https://www.nps.gov/apis","INAT_URL":"http://www.inaturalist.org/projects/2016-national-parks-bioblitz-apostle-islands"},"geometry":{"type":"Point","coordinates":[-90.57955662,46.93671618]}},{"type":"Feature","properties":{"UNIT_CODE":"ASIS","UNIT_NAME":"Assateague Island National Seashore","EVENT_NAME":"2016 National Parks BioBlitz - Assateague Island","STATE":"MD, VA","DATE":"Sat. May 21, 2016","PARK_URL":"https://www.nps.gov/asis","INAT_URL":"http://www.inaturalist.org/projects/2016-national-parks-bioblitz-assateague-island"},"geometry":{"type":"Point","coordinates":[-75.24962442,38.03902729]}},{"type":"Feature","properties":{"UNIT_CODE":"AZRU","UNIT_NAME":"Aztec Ruins National Monument","EVENT_NAME":"2016 National Parks BioBlitz - Aztec Ruins BugBlitz: May","STATE":"NM","DATE":"Wed. May 18 - Thu. May 19, 2016","PARK_URL":"https://www.nps.gov/azru","INAT_URL":"http://www.inaturalist.org/projects/2016-national-parks-bioblitz-aztec-ruins-bugblitz-may"},"geometry":{"type":"Point","coordinates":[-107.9999245,36.83682198]}},{"type":"Feature","properties":{"UNIT_CODE":"AZRU","UNIT_NAME":"Aztec Ruins National Monument","EVENT_NAME":"2016 National Parks BioBlitz - Aztec Ruins BugBlitz: July","STATE":"NM","DATE":"Wed. July 20, 2016","PARK_URL":"https://www.nps.gov/azru","INAT_URL":"http://www.inaturalist.org/projects/2016-national-parks-bioblitz-aztec-ruins-bugblitz-july"},"geometry":{"type":"Point","coordinates":[-107.995973,36.839596]}},{"type":"Feature","properties":{"UNIT_CODE":"AZRU","UNIT_NAME":"Aztec Ruins National Monument","EVENT_NAME":"2016 National Parks BioBlitz - Aztec Ruins BugBlitz: September","STATE":"NM","DATE":"Tue. September 20, 2016","PARK_URL":"https://www.nps.gov/azru","INAT_URL":"http://www.inaturalist.org/projects/2016-national-parks-bioblitz-aztec-ruins-bugblitz-september"},"geometry":{"type":"Point","coordinates":[-108.001209,36.834478]}},{"type":"Feature","properties":{"UNIT_CODE":"BAND","UNIT_NAME":"Bandelier National Monument","EVENT_NAME":"2016 National Parks BioBlitz - Bandelier","STATE":"NM","DATE":"Fri. May 20 - Sat. May 21, 2016","PARK_URL":"https://www.nps.gov/band","INAT_URL":"http://www.inaturalist.org/projects/2016-national-parks-bioblitz-bandelier"},"geometry":{"type":"Point","coordinates":[-106.3055099,35.75757661]}},{"type":"Feature","properties":{"UNIT_CODE":"BELA","UNIT_NAME":"Bering Land Bridge National Preserve","EVENT_NAME":"2016 National Parks BioBlitz - Bering Land Bridge","STATE":"AK","DATE":"Thu. July 7 - Sun. July 10, 2016","PARK_URL":"https://www.nps.gov/bela","INAT_URL":"http://www.inaturalist.org/projects/2016-national-parks-bioblitz-bering-land-bridge"},"geometry":{"type":"Point","coordinates":[-163.9208061,65.75704848]}},{"type":"Feature","properties":{"UNIT_CODE":"BITH","UNIT_NAME":"Big Thicket National Preserve","EVENT_NAME":"2016 National Parks BioBlitz - Big Thicket Mini-BioBlitz","STATE":"TX","DATE":"Fri. October 14 - Sun. October 16, 2016","PARK_URL":"https://www.nps.gov/bith","INAT_URL":"http://www.inaturalist.org/projects/2016-national-parks-bioblitz-big-thicket-mini-bioblitz"},"geometry":{"type":"Point","coordinates":[-94.11767341,30.20260051]}},{"type":"Feature","properties":{"UNIT_CODE":"BOHA","UNIT_NAME":"Boston Harbor Islands National Recreation Area","EVENT_NAME":"2016 National Parks BioBlitz - Boston Harbor Islands","STATE":"MA","DATE":"Fri. September 23 - Sat. September 24, 2016","PARK_URL":"https://www.nps.gov/boha","INAT_URL":"http://www.inaturalist.org/projects/2016-national-parks-bioblitz-boston-harbor-islands"},"geometry":{"type":"Point","coordinates":[-70.8761789,42.26219884]}},{"type":"Feature","properties":{"UNIT_CODE":"BUFF","UNIT_NAME":"Buffalo National River","EVENT_NAME":"2016 National Parks BioBlitz - Caddisflies of Buffalo National River","STATE":"AR","DATE":"Fri. May 20 - Sat. May 21, 2016","PARK_URL":"https://www.nps.gov/buff","INAT_URL":"http://www.inaturalist.org/projects/2016-national-parks-bioblitz-buffalo-national-river"},"geometry":{"type":"Point","coordinates":[-92.91810617,35.968644]}},{"type":"Feature","properties":{"UNIT_CODE":"CABR","UNIT_NAME":"Cabrillo National Monument","EVENT_NAME":"2016 National Parks BioBlitz - Cabrillo Intertidal BioBlitz","STATE":"CA","DATE":"Sun. March 6, 2016","PARK_URL":"https://www.nps.gov/cabr","INAT_URL":"http://www.inaturalist.org/projects/2016-national-parks-bioblitz-cabrillo-intertidal-bioblitz"},"geometry":{"type":"Point","coordinates":[-117.2415986,32.67225021]}},{"type":"Feature","properties":{"UNIT_CODE":"CABR","UNIT_NAME":"Cabrillo National Monument","EVENT_NAME":"2016 National Parks BioBlitz - Cabrillo: Urban Island BioBlitz","STATE":"CA","DATE":"Sat. May 21 - Sun. May 22, 2016","PARK_URL":"https://www.nps.gov/cabr","INAT_URL":"http://www.inaturalist.org/projects/2016-national-parks-bioblitz-cabrillo-urban-island-bioblitz"},"geometry":{"type":"Point","coordinates":[-117.243282,32.67059]}},{"type":"Feature","properties":{"UNIT_CODE":"CARL","UNIT_NAME":"Carl Sandburg Home National Historic Site","EVENT_NAME":"2016 National Parks BioBlitz - Carl Sandburg Scientists","STATE":"NC","DATE":"Sat. July 23, 2016","PARK_URL":"https://www.nps.gov/carl","INAT_URL":"http://www.inaturalist.org/projects/2016-national-parks-bioblitz-carl-sandburg-scientists"},"geometry":{"type":"Point","coordinates":[-82.45106268,35.26815486]}},{"type":"Feature","properties":{"UNIT_CODE":"CARL","UNIT_NAME":"Carl Sandburg Home National Historic Site","EVENT_NAME":"2016 National Parks BioBlitz - Carl Sandburg Home","STATE":"NC","DATE":"Fri. May 20, 2016","PARK_URL":"https://www.nps.gov/carl","INAT_URL":"http://www.inaturalist.org/projects/2016-national-parks-bioblitz-carl-sandburg-home"},"geometry":{"type":"Point","coordinates":[-82.449891,35.273033]}},{"type":"Feature","properties":{"UNIT_CODE":"CATO","UNIT_NAME":"Catoctin Mountain Park","EVENT_NAME":"2016 National Parks BioBlitz - Catoctin Insect BioBlitz","STATE":"MD","DATE":"Fri. May 20 - Sat. May 21, 2016","PARK_URL":"https://www.nps.gov/cato","INAT_URL":"http://www.inaturalist.org/projects/2016-national-parks-bioblitz-catoctin-insect-bioblitz"},"geometry":{"type":"Point","coordinates":[-77.46122133,39.64821119]}},{"type":"Feature","properties":{"UNIT_CODE":"CEBR","UNIT_NAME":"Cedar Breaks National Monument","EVENT_NAME":"2016 National Parks BioBlitz - Cedar Breaks: Bats, Birds, and Bugs","STATE":"UT","DATE":"Fri. June 24 - Sun. June 26, 2016","PARK_URL":"https://www.nps.gov/cebr","INAT_URL":"http://www.inaturalist.org/projects/2016-national-parks-bioblitz-cedar-breaks-bats-birds-and-bugs"},"geometry":{"type":"Point","coordinates":[-112.8452681,37.63545088]}},{"type":"Feature","properties":{"UNIT_CODE":"CECH","UNIT_NAME":"Cesar E. Chavez National Monument","EVENT_NAME":"2016 National Parks BioBlitz - Cesar E. Chavez","STATE":"CA","DATE":"Sat. April 16, 2016","PARK_URL":"https://www.nps.gov/cech","INAT_URL":"http://www.inaturalist.org/projects/2016-national-parks-bioblitz-cesar-e-chavez"},"geometry":{"type":"Point","coordinates":[-118.5615781,35.22729381]}},{"type":"Feature","properties":{"UNIT_CODE":"CHIC","UNIT_NAME":"Chickasaw National Recreation Area","EVENT_NAME":"2016 National Parks BioBlitz - Chickasaw PaleoBlitz","STATE":"OK","DATE":"Fri. May 20 - Sat. May 21, 2016","PARK_URL":"https://www.nps.gov/chic","INAT_URL":"http://nsstage/geology/nationalfossilday/paleoblitz_CHIC2016.cfm"},"geometry":{"type":"Point","coordinates":[-97.00715806,34.46049374]}},{"type":"Feature","properties":{"UNIT_CODE":"CHIR","UNIT_NAME":"Chiricahua National Monument","EVENT_NAME":"2016 National Parks BioBlitz - Chiricahua: Birds, Bugs and Botany","STATE":"AZ","DATE":"Sat. May 14, 2016","PARK_URL":"https://www.nps.gov/chir","INAT_URL":"http://www.inaturalist.org/projects/2016-national-parks-bioblitz-chiricahua-birds-bugs-and-botany"},"geometry":{"type":"Point","coordinates":[-109.3416065,32.01214105]}},{"type":"Feature","properties":{"UNIT_CODE":"CHIS","UNIT_NAME":"Channel Islands National Park","EVENT_NAME":"2016 National Parks BioBlitz - Channel Islands","STATE":"CA","DATE":"Mon. May 16 - Sat. May 21, 2016","PARK_URL":"https://www.nps.gov/chis","INAT_URL":"http://www.inaturalist.org/projects/2016-national-parks-bioblitz-channel-islands"},"geometry":{"type":"Point","coordinates":[-119.7396508,34.01655127]}},{"type":"Feature","properties":{"UNIT_CODE":"CHOH","UNIT_NAME":"Chesapeake & Ohio Canal National Historic Park","EVENT_NAME":"2016 National Parks BioBlitz - C&O Canal Biodiversity Celebration","STATE":"DC","DATE":"Fri. May 20 - Sat. May 21, 2016","PARK_URL":"https://www.nps.gov/choh","INAT_URL":"http://www.inaturalist.org/projects/2016-national-parks-bioblitz-c-o-canal-biodiversity-celebration"},"geometry":{"type":"Point","coordinates":[-77.94484191,39.5996516]}},{"type":"Feature","properties":{"UNIT_CODE":"CHPI","UNIT_NAME":"Charles Pinckney National Historic Site","EVENT_NAME":"2016 National Parks BioBlitz - Charles Pinckney","STATE":"SC","DATE":"Fri. May 20 - Sat. May 21, 2016","PARK_URL":"https://www.nps.gov/chpi","INAT_URL":"http://www.inaturalist.org/projects/2016-national-parks-bioblitz-charles-pinckney"},"geometry":{"type":"Point","coordinates":[-79.82487582,32.84577391]}},{"type":"Feature","properties":{"UNIT_CODE":"CIRO","UNIT_NAME":"City of Rocks National Reserve","EVENT_NAME":"2016 National Parks BioBlitz - City of Rocks: Birds and Blooms","STATE":"ID","DATE":"Sat. May 21, 2016","PARK_URL":"https://www.nps.gov/ciro","INAT_URL":"http://www.inaturalist.org/projects/2016-national-parks-bioblitz-city-of-rocks-birds-and-blooms"},"geometry":{"type":"Point","coordinates":[-113.7124104,42.06988424]}},{"type":"Feature","properties":{"UNIT_CODE":"COLO","UNIT_NAME":"Colonial National Historical Park","EVENT_NAME":"2016 National Parks BioBlitz - Colonial Insect Blitz","STATE":"VA","DATE":"Wed. September 21, 2016","PARK_URL":"https://www.nps.gov/colo","INAT_URL":"http://www.inaturalist.org/projects/2016-national-parks-bioblitz-colonial-insect-blitz"},"geometry":{"type":"Point","coordinates":[-76.63422124,37.28808948]}},{"type":"Feature","properties":{"UNIT_CODE":"CONG","UNIT_NAME":"Congaree National Park","EVENT_NAME":"2016 National Parks BioBlitz - Congaree","STATE":"SC","DATE":"Fri. May 20 - Sat. May 21, 2016","PARK_URL":"https://www.nps.gov/cong","INAT_URL":"http://www.inaturalist.org/projects/2016-national-parks-bioblitz-congaree"},"geometry":{"type":"Point","coordinates":[-80.77279206,33.79684439]}},{"type":"Feature","properties":{"UNIT_CODE":"CORO","UNIT_NAME":"Coronado National Memorial","EVENT_NAME":"2016 National Parks BioBlitz - Coronado: Birds, Bugs and Botany","STATE":"AZ","DATE":"Sat. May 21, 2016","PARK_URL":"https://www.nps.gov/coro","INAT_URL":"http://www.inaturalist.org/projects/2016-national-parks-bioblitz-coronado-birds-bugs-and-botany"},"geometry":{"type":"Point","coordinates":[-110.2561572,31.34900273]}},{"type":"Feature","properties":{"UNIT_CODE":"COWP","UNIT_NAME":"Cowpens National Battlefield","EVENT_NAME":"2016 National Parks BioBlitz - Cowpens","STATE":"SC","DATE":"Fri. May 20 - Sat. May 21, 2016","PARK_URL":"https://www.nps.gov/cowp","INAT_URL":"http://www.inaturalist.org/projects/2016-national-parks-bioblitz-cowpens"},"geometry":{"type":"Point","coordinates":[-81.80935401,35.13160593]}},{"type":"Feature","properties":{"UNIT_CODE":"CRLA","UNIT_NAME":"Crater Lake National Park","EVENT_NAME":"2016 National Parks BioBlitz - Crater Lake: Meet the Beetles","STATE":"OR","DATE":"Sat. July 23, 2016","PARK_URL":"https://www.nps.gov/crla","INAT_URL":"http://www.inaturalist.org/projects/2016-national-parks-bioblitz-crater-lake-meet-the-beetles"},"geometry":{"type":"Point","coordinates":[-122.1328164,42.9410862]}},{"type":"Feature","properties":{"UNIT_CODE":"CRMO","UNIT_NAME":"Craters of the Moon National Monument and Preserve","EVENT_NAME":"2016 National Parks BioBlitz - Craters of the Moon: Lichen Blitz","STATE":"ID","DATE":"Fri. May 13 - Sat. May 14, 2016","PARK_URL":"https://www.nps.gov/crmo","INAT_URL":"http://www.inaturalist.org/projects/2016-national-parks-bioblitz-craters-of-the-moon-lichen-blitz"},"geometry":{"type":"Point","coordinates":[-113.4416201,43.28286894]}},{"type":"Feature","properties":{"UNIT_CODE":"CUVA","UNIT_NAME":"Cuyahoga Valley National Park","EVENT_NAME":"2016 National Parks BioBlitz - Cuyahoga Valley","STATE":"OH","DATE":"Fri. May 20 - Sat. May 21, 2016","PARK_URL":"https://www.nps.gov/cuva","INAT_URL":"http://www.inaturalist.org/projects/2016-national-parks-bioblitz-cuyahoga-valley"},"geometry":{"type":"Point","coordinates":[-81.56904389,41.26123633]}},{"type":"Feature","properties":{"UNIT_CODE":"DENA","UNIT_NAME":"Denali National Park and Preserve","EVENT_NAME":"2016 National Parks BioBlitz - Denali - Arthropod Inventory","STATE":"AK","DATE":"Wed. June 15 - Tue. August 30, 2016","PARK_URL":"https://www.nps.gov/dena","INAT_URL":"http://www.inaturalist.org/projects/2016-national-parks-bioblitz-denali-arthropod-inventory"},"geometry":{"type":"Point","coordinates":[-150.7341423,63.34110762]}},{"type":"Feature","properties":{"UNIT_CODE":"DETO","UNIT_NAME":"Devils Tower National Monument","EVENT_NAME":"2016 National Parks BioBlitz - Devils Tower Porcupine BioBlitz","STATE":"WY","DATE":"Sat. April 30, 2016","PARK_URL":"https://www.nps.gov/deto","INAT_URL":"http://www.inaturalist.org/places/devils-tower-national-monument"},"geometry":{"type":"Point","coordinates":[-104.7156342,44.59064562]}},{"type":"Feature","properties":{"UNIT_CODE":"DEVA","UNIT_NAME":"Death Valley National Park","EVENT_NAME":"2016 National Parks BioBlitz - Death Valley: Discovering Life on the Edge","STATE":"CA","DATE":"Sat. March 12, 2016","PARK_URL":"https://www.nps.gov/deva","INAT_URL":"http://www.inaturalist.org/projects/2016-national-parks-bioblitz-death-valley-discovering-life-on-the-edge-71162a33-482e-40e4-9b9a-5c08a7433e92"},"geometry":{"type":"Point","coordinates":[-117.1326278,36.48393063]}},{"type":"Feature","properties":{"UNIT_CODE":"DINO","UNIT_NAME":"Dinosaur National Monument","EVENT_NAME":"2016 National Parks BioBlitz - Dinosaur Wild Life Weekend","STATE":"CO","DATE":"Sat. May 21 - Sun. May 22, 2016","PARK_URL":"https://www.nps.gov/dino","INAT_URL":"http://www.inaturalist.org/projects/2016-national-parks-bioblitz-dinosaur-wild-life-weekend"},"geometry":{"type":"Point","coordinates":[-108.9377028,40.50596642]}},{"type":"Feature","properties":{"UNIT_CODE":"EBLA","UNIT_NAME":"Ebey's Landing National Historical Reserve","EVENT_NAME":"2016 National Parks BioBlitz - Ebey's Landing","STATE":"WA","DATE":"Fri. May 20 - Sun. May 22, 2016","PARK_URL":"https://www.nps.gov/ebla","INAT_URL":"http://www.inaturalist.org/projects/2016-national-parks-bioblitz-ebey-s-landing"},"geometry":{"type":"Point","coordinates":[-122.6877159,48.214014]}},{"type":"Feature","properties":{"UNIT_CODE":"EFMO","UNIT_NAME":"Effigy Mounds National Monument","EVENT_NAME":"2016 National Parks BioBlitz - Effigy Mounds: Arthropodapolooza","STATE":"IA","DATE":"Fri. July 8 - Sat. July 9, 2016","PARK_URL":"https://www.nps.gov/efmo","INAT_URL":"http://www.inaturalist.org/projects/2016-national-parks-bioblitz-effigy-mounds-arthropodapolooza"},"geometry":{"type":"Point","coordinates":[-91.20777104,43.09145766]}},{"type":"Feature","properties":{"UNIT_CODE":"FOBO","UNIT_NAME":"Fort Bowie National Historic Site","EVENT_NAME":"2016 National Parks BioBlitz - Fort Bowie: Birds, Bugs and Botany","STATE":"AZ","DATE":"Sat. March 26, 2016","PARK_URL":"https://www.nps.gov/fobo","INAT_URL":"http://www.inaturalist.org/projects/2016-national-parks-bioblitz-fort-bowie-birds-bugs-and-botany"},"geometry":{"type":"Point","coordinates":[-109.4511317,32.14925916]}},{"type":"Feature","properties":{"UNIT_CODE":"FOCA","UNIT_NAME":"Fort Caroline National Memorial","EVENT_NAME":"2016 National Parks BioBlitz - Fort Caroline: Insect BioBlitz","STATE":"FL","DATE":"Fri. May 20 - Sat. May 21, 2016","PARK_URL":"https://www.nps.gov/foca","INAT_URL":"http://www.inaturalist.org/projects/2016-national-parks-bioblitz-fort-caroline-insect-bioblitz"},"geometry":{"type":"Point","coordinates":[-81.50029453,30.38452103]}},{"type":"Feature","properties":{"UNIT_CODE":"FOSU","UNIT_NAME":"Fort Sumter National Monument","EVENT_NAME":"2016 National Parks BioBlitz - Fort Moultrie","STATE":"SC","DATE":"Fri. May 20 - Sat. May 21, 2016","PARK_URL":"https://www.nps.gov/fosu","INAT_URL":"http://www.inaturalist.org/projects/2016-national-parks-bioblitz-fort-moultrie"},"geometry":{"type":"Point","coordinates":[-79.87933364,32.75359427]}},{"type":"Feature","properties":{"UNIT_CODE":"FOVA","UNIT_NAME":"Fort Vancouver National Historic Site","EVENT_NAME":"2016 National Parks BioBlitz - Fort Vancouver","STATE":"WA","DATE":"Fri. May 20 - Sat. May 21, 2016","PARK_URL":"https://www.nps.gov/fova","INAT_URL":"http://www.inaturalist.org/projects/2016-national-parks-bioblitz-fort-vancouver"},"geometry":{"type":"Point","coordinates":[-122.6616376,45.62356027]}},{"type":"Feature","properties":{"UNIT_CODE":"FRST","UNIT_NAME":"First State National Historical park","EVENT_NAME":"2016 National Parks BioBlitz - First State","STATE":"DE","DATE":"Fri. May 20 - Sat. May 21, 2016","PARK_URL":"https://www.nps.gov/frst","INAT_URL":"http://www.inaturalist.org/projects/2016-national-parks-bioblitz-first-state"},"geometry":{"type":"Point","coordinates":[-75.56362482,39.83184434]}},{"type":"Feature","properties":{"UNIT_CODE":"GAAR","UNIT_NAME":"Gates of the Arctic National Park & Preserve","EVENT_NAME":"2016 National Parks BioBlitz - Gates of the Arctic","STATE":"AK","DATE":"Fri. May 20 - Sun. May 22, 2016","PARK_URL":"https://www.nps.gov/gaar","INAT_URL":"http://www.inaturalist.org/projects/2016-national-parks-bioblitz-gates-of-the-arctic"},"geometry":{"type":"Point","coordinates":[-153.3869032,67.86900574]}},{"type":"Feature","properties":{"UNIT_CODE":"GATE","UNIT_NAME":"Gateway National Recreation Area","EVENT_NAME":"2016 National Parks BioBlitz - Gateway: Jamaica Bay BioBlitz","STATE":"NY","DATE":"Fri. June 10 - Sat. June 11, 2016","PARK_URL":"https://www.nps.gov/gate","INAT_URL":"http://www.inaturalist.org/projects/2016-national-parks-bioblitz-jamaica-bay-bioblitz"},"geometry":{"type":"Point","coordinates":[-73.86104474,40.6185497]}},{"type":"Feature","properties":{"UNIT_CODE":"GATE","UNIT_NAME":"Gateway National Recreation Area","EVENT_NAME":"2016 National Parks BioBlitz - Gateway: Sandy Hook BioBlitz","STATE":"NY","DATE":"Sun. October 23 - Mon. October 24, 2016","PARK_URL":"https://www.nps.gov/gate","INAT_URL":"http://www.inaturalist.org/projects/2016-national-parks-bioblitz-gateway-sandy-hook-bioblitz"},"geometry":{"type":"Point","coordinates":[-73.997349,40.457516]}},{"type":"Feature","properties":{"UNIT_CODE":"GETT","UNIT_NAME":"Gettysburg National Military Park","EVENT_NAME":"2016 National Parks BioBlitz - Gettysburg","STATE":"PA","DATE":"Fri. May 20, 2016","PARK_URL":"https://www.nps.gov/gett","INAT_URL":"http://www.inaturalist.org/projects/2016-national-parks-bioblitz-gettysburg"},"geometry":{"type":"Point","coordinates":[-77.23846983,39.80428488]}},{"type":"Feature","properties":{"UNIT_CODE":"GLAC","UNIT_NAME":"Glacier National Park","EVENT_NAME":"2016 National Parks BioBlitz - Glacier Alpine Aquatic Insect Blitz","STATE":"MT","DATE":"Fri. August 26 - Sun. August 28, 2016","PARK_URL":"https://www.nps.gov/glac","INAT_URL":"http://www.inaturalist.org/projects/2016-national-parks-bioblitz-glacier-alpine-aquatic-insect-blitz"},"geometry":{"type":"Point","coordinates":[-113.476888,48.490161]}},{"type":"Feature","properties":{"UNIT_CODE":"GLAC","UNIT_NAME":"Glacier National Park","EVENT_NAME":"2016 National Parks BioBlitz - Glacier Weed Blitz","STATE":"MT","DATE":"Tue. July 19, 2016","PARK_URL":"https://www.nps.gov/glac","INAT_URL":"http://www.inaturalist.org/projects/2016-national-parks-bioblitz-glacier-weed-blitz"},"geometry":{"type":"Point","coordinates":[-113.902463,48.916481]}},{"type":"Feature","properties":{"UNIT_CODE":"GLAC","UNIT_NAME":"Glacier National Park","EVENT_NAME":"2016 National Parks BioBlitz - Glacier Lake Ecology Blitz","STATE":"MT","DATE":"Wed. May 25 - Sat. May 28, 2016","PARK_URL":"https://www.nps.gov/glac","INAT_URL":"http://www.inaturalist.org/projects/2016-national-parks-bioblitz-glacier-lake-ecology-blitz"},"geometry":{"type":"Point","coordinates":[-113.8587463,48.74679601]}},{"type":"Feature","properties":{"UNIT_CODE":"GLAC","UNIT_NAME":"Glacier National Park","EVENT_NAME":"2016 National Parks BioBlitz - Glacier Wildlife Observations","STATE":"MT","DATE":"Sun. May 1 - Fri. September 30, 2016","PARK_URL":"https://www.nps.gov/glac","INAT_URL":"http://www.inaturalist.org/projects/2016-national-parks-bioblitz-glacier-wildlife-observations"},"geometry":{"type":"Point","coordinates":[-113.860802,48.639254]}},{"type":"Feature","properties":{"UNIT_CODE":"GOGA","UNIT_NAME":"Golden Gate National Recreation Area","EVENT_NAME":"2016 National Parks BioBlitz - Golden Gate with Farallone View Elementary","STATE":"CA","DATE":"Fri. April 1, 2016","PARK_URL":"https://www.nps.gov/goga","INAT_URL":"http://www.inaturalist.org/projects/2016-national-parks-bioblitz-golden-gate-with-farallone-view-elementary"},"geometry":{"type":"Point","coordinates":[-122.551128,37.85887677]}},{"type":"Feature","properties":{"UNIT_CODE":"GRBA","UNIT_NAME":"Great Basin National Park","EVENT_NAME":"2016 National Parks BioBlitz - Great Basin Bird BioBlitz","STATE":"NV","DATE":"Fri. May 20 - Sun. May 22, 2016","PARK_URL":"https://www.nps.gov/grba","INAT_URL":"http://www.inaturalist.org/projects/2016-national-parks-bioblitz-great-basin-bird-bioblitz"},"geometry":{"type":"Point","coordinates":[-114.2579658,38.9460953]}},{"type":"Feature","properties":{"UNIT_CODE":"GRSM","UNIT_NAME":"Great Smoky Mountains NP","EVENT_NAME":"2016 National Parks BioBlitz - Great Smoky Mountains: North Carolina","STATE":"NC","DATE":"Fri. April 22, 2016","PARK_URL":"https://www.nps.gov/grsm","INAT_URL":"http://www.inaturalist.org/projects/2016-national-parks-bioblitz-great-smoky-mountains-north-carolina"},"geometry":{"type":"Point","coordinates":[-83.432735,35.5759]}},{"type":"Feature","properties":{"UNIT_CODE":"GRSM","UNIT_NAME":"Great Smoky Mountains NP","EVENT_NAME":"2016 National Parks BioBlitz - Great Smoky Mountains: Tennessee","STATE":"TN","DATE":"Thu. May 12, 2016","PARK_URL":"https://www.nps.gov/grsm","INAT_URL":"http://www.inaturalist.org/projects/2016-national-parks-bioblitz-great-smoky-mountains-tennessee"},"geometry":{"type":"Point","coordinates":[-83.52627532,35.60927471]}},{"type":"Feature","properties":{"UNIT_CODE":"GUIS","UNIT_NAME":"Gulf Islands National Seashore","EVENT_NAME":"2016 National Parks BioBlitz - Gulf Islands","STATE":"FL","DATE":"Sat. May 21, 2016","PARK_URL":"https://www.nps.gov/guis","INAT_URL":"http://www.inaturalist.org/projects/2016-national-parks-bioblitz-gulf-islands"},"geometry":{"type":"Point","coordinates":[-86.90996505,30.37306335]}},{"type":"Feature","properties":{"UNIT_CODE":"GWCA","UNIT_NAME":"George Washington Carver National Monument","EVENT_NAME":"2016 National Parks BioBlitz - George Washington Carver: Harkins Woods","STATE":"MO","DATE":"Sat. May 21, 2016","PARK_URL":"https://www.nps.gov/gwca","INAT_URL":"http://www.inaturalist.org/projects/2016-national-parks-bioblitz-george-washington-carver-harkins-woods"},"geometry":{"type":"Point","coordinates":[-94.35522735,36.98713203]}},{"type":"Feature","properties":{"UNIT_CODE":"GWMP","UNIT_NAME":"George Washington Memorial Parkway","EVENT_NAME":"2016 National Parks BioBlitz - George Washington Memorial Parkway","STATE":"VA","DATE":"Fri. May 20 - Sat. May 21, 2016","PARK_URL":"https://www.nps.gov/gwmp","INAT_URL":"http://www.inaturalist.org/projects/2016-national-parks-bioblitz-george-washington-memorial-parkway"},"geometry":{"type":"Point","coordinates":[-77.04954861,38.71498629]}},{"type":"Feature","properties":{"UNIT_CODE":"HAFE","UNIT_NAME":"Harpers Ferry National Historical Park","EVENT_NAME":"2016 National Parks BioBlitz - Harpers Ferry","STATE":"WV","DATE":"Fri. May 20 - Sat. May 21, 2016","PARK_URL":"https://www.nps.gov/hafe","INAT_URL":"http://www.inaturalist.org/projects/2016-national-parks-bioblitz-harpers-ferry"},"geometry":{"type":"Point","coordinates":[-77.74195536,39.31286155]}},{"type":"Feature","properties":{"UNIT_CODE":"HAVO","UNIT_NAME":"Hawaii Volcanoes National Park","EVENT_NAME":"2016 National Parks BioBlitz - Hawai'i Volcanoes: E Ho'omau...To perpetuate","STATE":"HI","DATE":"Sat. August 27, 2016","PARK_URL":"https://www.nps.gov/havo","INAT_URL":"http://www.inaturalist.org/projects/2016-national-parks-bioblitz-hawai-i-volcanoes-e-ho-omau-to-perpetuate"},"geometry":{"type":"Point","coordinates":[-155.6028551,19.37757748]}},{"type":"Feature","properties":{"UNIT_CODE":"HOFU","UNIT_NAME":"Hopewell Furnace NHS","EVENT_NAME":"2016 National Parks BioBlitz - Hopewell Furnace","STATE":"PA","DATE":"Fri. May 20 - Sat. May 21, 2016","PARK_URL":"https://www.nps.gov/hofu","INAT_URL":"http://www.inaturalist.org/projects/2016-national-parks-bioblitz-hopewell-furnace"},"geometry":{"type":"Point","coordinates":[-75.76811627,40.2060723]}},{"type":"Feature","properties":{"UNIT_CODE":"HOME","UNIT_NAME":"Homestead National Monument of America","EVENT_NAME":"2016 National Parks BioBlitz - Homestead Critter Count","STATE":"NE","DATE":"Sat. May 21, 2016","PARK_URL":"https://www.nps.gov/home","INAT_URL":"http://www.inaturalist.org/projects/2016-national-parks-bioblitz-homestead-critter-count"},"geometry":{"type":"Point","coordinates":[-96.83392498,40.28799999]}},{"type":"Feature","properties":{"UNIT_CODE":"HOME","UNIT_NAME":"Homestead National Monument of America","EVENT_NAME":"2016 National Parks BioBlitz - Homestead Bee BioBlitz","STATE":"NE","DATE":"Sun. October 2, 2016","PARK_URL":"https://www.nps.gov/home","INAT_URL":"http://www.inaturalist.org/projects/2016-national-parks-bioblitz-homestead-bee-bioblitz"},"geometry":{"type":"Point","coordinates":[-96.83247,40.286879]}},{"type":"Feature","properties":{"UNIT_CODE":"HOSP","UNIT_NAME":"Hot Springs National Park","EVENT_NAME":"2016 National Parks BioBlitz - Hot Springs: Reptilian Roundup and Fungus Find","STATE":"AR","DATE":"Fri. May 20 - Sat. May 21, 2016","PARK_URL":"https://www.nps.gov/hosp","INAT_URL":"http://www.inaturalist.org/projects/2016-national-parks-bioblitz-hot-springs-reptilian-roundup-and-fungus-find"},"geometry":{"type":"Point","coordinates":[-93.08972185,34.51113731]}},{"type":"Feature","properties":{"UNIT_CODE":"INDU","UNIT_NAME":"Indiana Dunes National Lakeshore","EVENT_NAME":"2016 National Parks BioBlitz - Indiana Dunes: Miller Woods BioBlitz","STATE":"IN","DATE":"Fri. May 20 - Sat. May 21, 2016","PARK_URL":"https://www.nps.gov/indu","INAT_URL":"http://www.inaturalist.org/projects/2016-national-parks-bioblitz-indiana-dunes-miller-woods-bioblitz"},"geometry":{"type":"Point","coordinates":[-87.03253334,41.66141521]}},{"type":"Feature","properties":{"UNIT_CODE":"JELA","UNIT_NAME":"Jean Lafitte National Historical Park and Preserve","EVENT_NAME":"2016 National Parks BioBlitz - Jean Lafitte BugBlitz","STATE":"LA","DATE":"Fri. May 6, 2016","PARK_URL":"https://www.nps.gov/jela","INAT_URL":"http://www.inaturalist.org/projects/2016-national-parks-bioblitz-jean-lafitte-bugblitz"},"geometry":{"type":"Point","coordinates":[-90.14721028,29.81916125]}},{"type":"Feature","properties":{"UNIT_CODE":"JOMU","UNIT_NAME":"John Muir National Historic Site","EVENT_NAME":"2016 National Parks BioBlitz - John Muir","STATE":"CA","DATE":"Fri. May 20 - Sat. May 21, 2016","PARK_URL":"https://www.nps.gov/jomu","INAT_URL":"http://www.inaturalist.org/projects/2016-national-parks-bioblitz-john-muir"},"geometry":{"type":"Point","coordinates":[-122.13266,37.98263441]}},{"type":"Feature","properties":{"UNIT_CODE":"JOTR","UNIT_NAME":"Joshua Tree National Park","EVENT_NAME":"2016 National Parks BioBlitz - Joshua Tree Ethno-Bot-Blitz","STATE":"CA","DATE":"Sat. May 21, 2016","PARK_URL":"https://www.nps.gov/jotr","INAT_URL":"http://www.inaturalist.org/projects/2016-national-parks-bioblitz-joshua-tree-ethno-bot-blitz"},"geometry":{"type":"Point","coordinates":[-115.8601108,33.82705237]}},{"type":"Feature","properties":{"UNIT_CODE":"KEAQ","UNIT_NAME":"Kenilworth Aquatic Gardens","EVENT_NAME":"2016 National Parks BioBlitz - Kenilworth","STATE":"DC","DATE":"Fri. May 20 - Sat. May 21, 2016","PARK_URL":"https://www.nps.gov/keaq","INAT_URL":"http://www.inaturalist.org/projects/2016-national-parks-bioblitz-kenilworth"},"geometry":{"type":"Point","coordinates":[-76.941816,38.912699]}},{"type":"Feature","properties":{"UNIT_CODE":"KEFJ","UNIT_NAME":"Kenai Fjords National Park","EVENT_NAME":"2016 National Parks BioBlitz - Kenai Fjords Pollinators","STATE":"AK","DATE":"Mon. July 25 - Fri. July 29, 2016","PARK_URL":"https://www.nps.gov/kefj","INAT_URL":"http://www.inaturalist.org/projects/2016-national-parks-bioblitz-kenai-fjords-pollinators"},"geometry":{"type":"Point","coordinates":[-149.8815245,59.95320812]}},{"type":"Feature","properties":{"UNIT_CODE":"KIMO","UNIT_NAME":"Kings Mountain National Military Park","EVENT_NAME":"2016 National Parks BioBlitz - Kings Mountain","STATE":"SC","DATE":"Fri. May 20 - Sat. May 21, 2016","PARK_URL":"https://www.nps.gov/kimo","INAT_URL":"http://www.inaturalist.org/projects/2016-national-parks-bioblitz-kings-mountain"},"geometry":{"type":"Point","coordinates":[-81.38978804,35.13900554]}},{"type":"Feature","properties":{"UNIT_CODE":"KLGO","UNIT_NAME":"Klondike Gold Rush National Historic Park","EVENT_NAME":"2016 National Parks BioBlitz - Klondike Gold Rush","STATE":"AK","DATE":"Thu. May 12 - Fri. May 13, 2016","PARK_URL":"https://www.nps.gov/klgo","INAT_URL":"http://www.inaturalist.org/projects/2016-national-parks-bioblitz-klondike-gold-rush"},"geometry":{"type":"Point","coordinates":[-135.2926367,59.63158703]}},{"type":"Feature","properties":{"UNIT_CODE":"KLSE","UNIT_NAME":"Klondike Gold Rush: Seattle Unit","EVENT_NAME":"2016 National Parks BioBlitz - Klondike Gold Rush: Seattle Unit","STATE":"WA","DATE":"Sat. May 21, 2016","PARK_URL":"https://www.nps.gov/klse","INAT_URL":"http://www.inaturalist.org/projects/2016-national-parks-bioblitz-pacific-northwest"},"geometry":{"type":"Point","coordinates":[-122.33198,47.599374]}},{"type":"Feature","properties":{"UNIT_CODE":"KNRI","UNIT_NAME":"Knife River Indian Villages National Historic Site","EVENT_NAME":"2016 National Parks BioBlitz - Knife River Indian Villages ArcheoBlitz","STATE":"ND","DATE":"Thu. May 5 - Sat. May 7, 2016","PARK_URL":"https://www.nps.gov/knri","INAT_URL":"http://www.inaturalist.org/projects/2016-national-parks-bioblitz-knife-river-indian-villages-archeoblitz"},"geometry":{"type":"Point","coordinates":[-101.3920156,47.36850054]}},{"type":"Feature","properties":{"UNIT_CODE":"LABE","UNIT_NAME":"Lava Beds National Monument","EVENT_NAME":"2016 National Parks BioBlitz - Lava Beds Bug-Blitz","STATE":"CA","DATE":"Sat. May 21, 2016","PARK_URL":"https://www.nps.gov/labe","INAT_URL":"http://www.inaturalist.org/projects/2016-national-parks-bioblitz-lava-beds-bug-blitz"},"geometry":{"type":"Point","coordinates":[-121.5178032,41.75872643]}},{"type":"Feature","properties":{"UNIT_CODE":"LAKE","UNIT_NAME":"Lake Mead National Recreation Area","EVENT_NAME":"2016 National Parks BioBlitz - Lake Mead","STATE":"NV","DATE":"Sat. March 19, 2016","PARK_URL":"https://www.nps.gov/lake","INAT_URL":"http://www.inaturalist.org/projects/2016-national-parks-bioblitz-lake-mead"},"geometry":{"type":"Point","coordinates":[-114.6519029,35.71471937]}},{"type":"Feature","properties":{"UNIT_CODE":"LAVO","UNIT_NAME":"Lassen Volcanic National Park","EVENT_NAME":"2016 National Parks BioBlitz - Lassen Volcanic Bird Banding BioBlitz","STATE":"CA","DATE":"Sun. July 17, 2016","PARK_URL":"https://www.nps.gov/lavo","INAT_URL":"http://www.inaturalist.org/projects/2016-national-parks-bioblitz-lassen-volcanic-bird-banding-bioblitz"},"geometry":{"type":"Point","coordinates":[-121.4072048,40.49378739]}},{"type":"Feature","properties":{"UNIT_CODE":"LAVO","UNIT_NAME":"Lassen Volcanic National Park","EVENT_NAME":"2016 National Parks BioBlitz - Lassen Volcanic Butterfly BioBlitz","STATE":"CA","DATE":"Sat. July 23, 2016","PARK_URL":"https://www.nps.gov/lavo","INAT_URL":"http://www.inaturalist.org/projects/2016-national-parks-bioblitz-lassen-volcanic-butterfly-bioblitz"},"geometry":{"type":"Point","coordinates":[-121.325615,40.512726]}},{"type":"Feature","properties":{"UNIT_CODE":"LEWI","UNIT_NAME":"Lewis & Clark National Historic Trail","EVENT_NAME":"2016 National Parks BioBlitz - Lewis and Clark","STATE":"WA","DATE":"Fri. May 20 - Sat. May 21, 2016","PARK_URL":"https://www.nps.gov/lewi","INAT_URL":"http://www.inaturalist.org/projects/2016-national-parks-bioblitz-lewis-and-clark"},"geometry":{"type":"Point","coordinates":[-124.0676324,46.28618254]}},{"type":"Feature","properties":{"UNIT_CODE":"LIRI","UNIT_NAME":"Little River Canyon National Preserve","EVENT_NAME":"2016 National Parks BioBlitz - Little River Canyon","STATE":"AL","DATE":"Fri. May 20 - Sun. May 22, 2016","PARK_URL":"https://www.nps.gov/liri","INAT_URL":"http://www.inaturalist.org/projects/2016-national-parks-bioblitz-little-river-canyon"},"geometry":{"type":"Point","coordinates":[-85.59724642,34.4519056]}},{"type":"Feature","properties":{"UNIT_CODE":"MABI","UNIT_NAME":"Marsh-Billings-Rockefeller National Historic Park","EVENT_NAME":"2016 National Parks BioBlitz - Marsh-Billings-Rockefeller","STATE":"VT","DATE":"Sun. May 22, 2016","PARK_URL":"https://www.nps.gov/mabi","INAT_URL":"http://www.inaturalist.org/projects/2016-national-parks-bioblitz-marsh-billings-rockefeller"},"geometry":{"type":"Point","coordinates":[-72.53823839,43.63382235]}},{"type":"Feature","properties":{"UNIT_CODE":"MANA","UNIT_NAME":"Manassas National Battlefield Park","EVENT_NAME":"2016 National Parks BioBlitz - Manassas","STATE":"VA","DATE":"Fri. May 20 - Sat. May 21, 2016","PARK_URL":"https://www.nps.gov/mana","INAT_URL":"http://www.inaturalist.org/projects/2016-national-parks-bioblitz-manassas"},"geometry":{"type":"Point","coordinates":[-77.53003926,38.82077103]}},{"type":"Feature","properties":{"UNIT_CODE":"MISS","UNIT_NAME":"Mississippi National River and Recreation Area","EVENT_NAME":"2016 National Parks BioBlitz - Mississippi River Coldwater BioBlitz","STATE":"MN","DATE":"Fri. July 15 - Sat. July 16, 2016","PARK_URL":"https://www.nps.gov/miss","INAT_URL":"http://www.inaturalist.org/projects/2016-national-parks-bioblitz-mississippi-river-coldwater-bioblitz"},"geometry":{"type":"Point","coordinates":[-92.93011156,44.77223486]}},{"type":"Feature","properties":{"UNIT_CODE":"MNRR","UNIT_NAME":"Missouri National Recreational River","EVENT_NAME":"2016 National Parks BioBlitz - Missouri National Recreational River","STATE":"SD","DATE":"Sat. May 21, 2016","PARK_URL":"https://www.nps.gov/mnrr","INAT_URL":"http://www.inaturalist.org/projects/2016-national-parks-bioblitz-missouri-national-recreational-river"},"geometry":{"type":"Point","coordinates":[-97.07068502,42.76717171]}},{"type":"Feature","properties":{"UNIT_CODE":"MOCA","UNIT_NAME":"Montezuma Castle National Monument","EVENT_NAME":"2016 National Parks BioBlitz - Montezuma Castle Invertebrate BioBlitz","STATE":"AZ","DATE":"Sat. May 21, 2016","PARK_URL":"https://www.nps.gov/moca","INAT_URL":"http://www.inaturalist.org/projects/2016-national-parks-bioblitz-montezuma-castle-invertebrate-bioblitz"},"geometry":{"type":"Point","coordinates":[-111.8366153,34.61102059]}},{"type":"Feature","properties":{"UNIT_CODE":"MONO","UNIT_NAME":"Monocacy National Battlefield","EVENT_NAME":"2016 National Parks BioBlitz - Monocacy","STATE":"MD","DATE":"Fri. May 20 - Sat. May 21, 2016","PARK_URL":"https://www.nps.gov/mono","INAT_URL":"http://www.inaturalist.org/projects/2016-national-parks-bioblitz-monocacy"},"geometry":{"type":"Point","coordinates":[-77.40246951,39.35769765]}},{"type":"Feature","properties":{"UNIT_CODE":"MORA","UNIT_NAME":"Mount Rainier National Park","EVENT_NAME":"2016 National Parks BioBlitz - Mount Rainier","STATE":"WA","DATE":"Fri. May 20 - Sun. May 22, 2016","PARK_URL":"https://www.nps.gov/mora","INAT_URL":"http://www.inaturalist.org/projects/2016-national-parks-bioblitz-mount-rainier"},"geometry":{"type":"Point","coordinates":[-121.7043729,46.86060444]}},{"type":"Feature","properties":{"UNIT_CODE":"NAMA","UNIT_NAME":"National Mall & Memorial Parks","EVENT_NAME":"2016 National Parks BioBlitz - National Mall","STATE":"DC","DATE":"Fri. May 20 - Sat. May 21, 2016","PARK_URL":"https://www.nps.gov/nama","INAT_URL":"http://www.inaturalist.org/projects/2016-national-parks-bioblitz-national-mall"},"geometry":{"type":"Point","coordinates":[-77.02278438,38.88986603]}},{"type":"Feature","properties":{"UNIT_CODE":"NATR","UNIT_NAME":"Natchez Trace Parkway","EVENT_NAME":"2016 National Parks BioBlitz - Natchez Trace BioBlitz and Wildlife Weekend","STATE":"MS","DATE":"Sat. April 16, 2016","PARK_URL":"https://www.nps.gov/natr","INAT_URL":"http://www.inaturalist.org/projects/2016-national-parks-bioblitz-natchez-trace-bioblitz-wildlife-weekend"},"geometry":{"type":"Point","coordinates":[-89.654,32.87]}},{"type":"Feature","properties":{"UNIT_CODE":"NISI","UNIT_NAME":"Ninety Six National Historic Site","EVENT_NAME":"2016 National Parks BioBlitz - Ninety Six","STATE":"SC","DATE":"Fri. May 20 - Sat. May 21, 2016","PARK_URL":"https://www.nps.gov/nisi","INAT_URL":"http://www.inaturalist.org/projects/2016-national-parks-bioblitz-ninety-six"},"geometry":{"type":"Point","coordinates":[-82.016,34.1427]}},{"type":"Feature","properties":{"UNIT_CODE":"NOCO","UNIT_NAME":"North Cascades National Park","EVENT_NAME":"2016 National Parks BioBlitz - North Cascades","STATE":"WA","DATE":"Fri. May 20 - Sun. May 22, 2016","PARK_URL":"https://www.nps.gov/noca","INAT_URL":"http://www.inaturalist.org/projects/2016-national-parks-bioblitz-north-cascades"},"geometry":{"type":"Point","coordinates":[-121.3466097,48.83319999]}},{"type":"Feature","properties":{"UNIT_CODE":"NPSA","UNIT_NAME":"National Park of American Samoa","EVENT_NAME":"2016 National Parks BioBlitz - American Samoa","STATE":"AS","DATE":"Sun. May 15 - Sun. May 22, 2016","PARK_URL":"https://www.nps.gov/npsa","INAT_URL":"http://www.inaturalist.org/projects/2016-national-parks-bioblitz-american-samoa"},"geometry":{"type":"Point","coordinates":[-169.4526019,-14.23749053]}},{"type":"Feature","properties":{"UNIT_CODE":"OCMU","UNIT_NAME":"Ocmulgee National Monument","EVENT_NAME":"2016 National Parks BioBlitz - Ocmulgee Butterfly BioBlitz","STATE":"GA","DATE":"Fri. August 19 - Sat. August 20, 2016","PARK_URL":"https://www.nps.gov/ocmu","INAT_URL":"http://www.inaturalist.org/projects/2016-national-parks-bioblitz-ocmulgee-butterfly-bioblitz"},"geometry":{"type":"Point","coordinates":[-83.59675984,32.83973829]}},{"type":"Feature","properties":{"UNIT_CODE":"OLYM","UNIT_NAME":"Olympic National Park","EVENT_NAME":"2016 National Parks BioBlitz - Olympic","STATE":"WA","DATE":"Fri. May 20 - Sat. May 21, 2016","PARK_URL":"https://www.nps.gov/olym","INAT_URL":"http://www.inaturalist.org/projects/2016-national-parks-bioblitz-olympic"},"geometry":{"type":"Point","coordinates":[-123.6183453,47.79456549]}},{"type":"Feature","properties":{"UNIT_CODE":"ORCA","UNIT_NAME":"Oregon Caves National Monument and Preserve","EVENT_NAME":"2016 National Parks BioBlitz - Oregon Caves Millipede BioBlitz","STATE":"OR","DATE":"Fri. May 20 - Sat. May 21, 2016","PARK_URL":"https://www.nps.gov/orca","INAT_URL":"http://www.inaturalist.org/projects/2016-national-parks-bioblitz-oregon-caves-millipede-bioblitz"},"geometry":{"type":"Point","coordinates":[-123.4016405,42.1031365]}},{"type":"Feature","properties":{"UNIT_CODE":"ORCA","UNIT_NAME":"Oregon Caves National Monument and Preserve","EVENT_NAME":"2016 National Parks BioBlitz - Oregon Caves Butterfly BioBlitz","STATE":"OR","DATE":"Sat. July 2, 2016","PARK_URL":"https://www.nps.gov/orca","INAT_URL":"http://www.inaturalist.org/projects/2016-national-parks-bioblitz-oregon-caves-butterfly-bioblitz"},"geometry":{"type":"Point","coordinates":[-123.37982,42.095156]}},{"type":"Feature","properties":{"UNIT_CODE":"ORCA","UNIT_NAME":"Oregon Caves National Monument and Preserve","EVENT_NAME":"2016 National Parks BioBlitz - Oregon Caves Dragonfly BioBlitz","STATE":"OR","DATE":"Sat. August 13, 2016","PARK_URL":"https://www.nps.gov/orca","INAT_URL":"http://www.inaturalist.org/projects/2016-national-parks-bioblitz-oregon-caves-dragonfly-bioblitz"},"geometry":{"type":"Point","coordinates":[-123.425229,42.111131]}},{"type":"Feature","properties":{"UNIT_CODE":"PAIS","UNIT_NAME":"Padre Island National Seashore","EVENT_NAME":"2016 National Parks BioBlitz - Padre Island: Dragonfly BioBlitz","STATE":"TX","DATE":"Mon. July 25 - Mon. August 15, 2016","PARK_URL":"https://www.nps.gov/pais","INAT_URL":"http://www.inaturalist.org/projects/padre-island-national-seashore-dragonfly-bioblitz"},"geometry":{"type":"Point","coordinates":[-97.34068068,26.70366538]}},{"type":"Feature","properties":{"UNIT_CODE":"PEFO","UNIT_NAME":"Petrified Forest National Park","EVENT_NAME":"2016 National Parks BioBlitz - Petrified Forest Nocturnal ReptileBlitz","STATE":"AZ","DATE":"Wed. August 10 - Wed. August 17, 2016","PARK_URL":"https://www.nps.gov/pefo","INAT_URL":"http://www.inaturalist.org/projects/2016-national-parks-bioblitz-petrified-forest-reptileblitz"},"geometry":{"type":"Point","coordinates":[-109.6747177,34.98864305]}},{"type":"Feature","properties":{"UNIT_CODE":"PINN","UNIT_NAME":"Pinnacles National Park","EVENT_NAME":"2016 National Parks BioBlitz - Pinnacles","STATE":"CA","DATE":"Sat. May 21, 2016","PARK_URL":"https://www.nps.gov/pinn","INAT_URL":"http://www.inaturalist.org/projects/2016-national-parks-bioblitz-pinnacles"},"geometry":{"type":"Point","coordinates":[-121.1809924,36.49021462]}},{"type":"Feature","properties":{"UNIT_CODE":"PIPE","UNIT_NAME":"Pipestone National Monument","EVENT_NAME":"2016 National Parks BioBlitz - Pipestone","STATE":"MN","DATE":"Sat. May 21, 2016","PARK_URL":"https://www.nps.gov/pipe","INAT_URL":"http://www.inaturalist.org/projects/2016-national-parks-bioblitz-pipestone"},"geometry":{"type":"Point","coordinates":[-96.32475523,44.01351938]}},{"type":"Feature","properties":{"UNIT_CODE":"PISC","UNIT_NAME":"Piscataway Park","EVENT_NAME":"2016 National Parks BioBlitz - Piscataway","STATE":"MD","DATE":"Fri. May 20 - Sat. May 21, 2016","PARK_URL":"https://www.nps.gov/pisc","INAT_URL":"http://www.inaturalist.org/projects/2016-national-parks-bioblitz-piscataway"},"geometry":{"type":"Point","coordinates":[-77.05511417,38.68388278]}},{"type":"Feature","properties":{"UNIT_CODE":"PORE","UNIT_NAME":"Point Reyes National Seashore","EVENT_NAME":"2016 National Parks BioBlitz - Point Reyes: Mudflat & Terrestrial Invertebrates","STATE":"CA","DATE":"Fri. May 20, 2016","PARK_URL":"https://www.nps.gov/pore","INAT_URL":"http://www.inaturalist.org/projects/2016-national-parks-bioblitz-point-reyes-mudflat-terrestrial-invertebrates"},"geometry":{"type":"Point","coordinates":[-122.8797044,38.05500555]}},{"type":"Feature","properties":{"UNIT_CODE":"PRPA","UNIT_NAME":"President's Park","EVENT_NAME":"2016 National Parks BioBlitz - President's Park","STATE":"DC","DATE":"Fri. May 20 - Sat. May 21, 2016","PARK_URL":"https://www.nps.gov/whho","INAT_URL":"http://www.inaturalist.org/projects/2016-national-parks-bioblitz-president-s-park"},"geometry":{"type":"Point","coordinates":[-77.036583,38.895617]}},{"type":"Feature","properties":{"UNIT_CODE":"PRWI","UNIT_NAME":"Prince William Forest Park","EVENT_NAME":"2016 National Parks BioBlitz - Prince William Forest","STATE":"VA","DATE":"Fri. May 20 - Sat. May 21, 2016","PARK_URL":"https://www.nps.gov/prwi","INAT_URL":"http://www.inaturalist.org/projects/2016-national-parks-bioblitz-prince-william-forest"},"geometry":{"type":"Point","coordinates":[-77.39112608,38.57850513]}},{"type":"Feature","properties":{"UNIT_CODE":"PULL","UNIT_NAME":"Pullman National Monument","EVENT_NAME":"2016 National Parks BioBlitz - Pullman","STATE":"IL","DATE":"Sat. May 21, 2016","PARK_URL":"https://www.nps.gov/pull","INAT_URL":"http://www.inaturalist.org/projects/2016-national-parks-bioblitz-pullman"},"geometry":{"type":"Point","coordinates":[-87.60873824,41.69429163]}},{"type":"Feature","properties":{"UNIT_CODE":"REDW","UNIT_NAME":"Redwood National and State Parks","EVENT_NAME":"2016 National Parks BioBlitz - Redwood Waterbird BioBlitz","STATE":"CA","DATE":"Wed. May 25, 2016","PARK_URL":"https://www.nps.gov/redw","INAT_URL":"http://www.inaturalist.org/places/redwood-national-park"},"geometry":{"type":"Point","coordinates":[-124.0316551,41.37133097]}},{"type":"Feature","properties":{"UNIT_CODE":"RICH","UNIT_NAME":"Richmond National Battlefield Park","EVENT_NAME":"2016 National Parks BioBlitz - Richmond Battlefield Biota","STATE":"VA","DATE":"Mon. September 26 - Sun. October 2, 2016","PARK_URL":"https://www.nps.gov/rich","INAT_URL":"http://www.inaturalist.org/projects/2016-national-parks-bioblitz-richmond-battlefield-biota"},"geometry":{"type":"Point","coordinates":[-77.28293615,37.57661115]}},{"type":"Feature","properties":{"UNIT_CODE":"ROCR","UNIT_NAME":"Rock Creek Park","EVENT_NAME":"2016 National Parks BioBlitz - Rock Creek Park","STATE":"DC","DATE":"Fri. May 20 - Sat. May 21, 2016","PARK_URL":"https://www.nps.gov/rocr","INAT_URL":"http://www.inaturalist.org/projects/2016-national-parks-bioblitz-rock-creek-park"},"geometry":{"type":"Point","coordinates":[-77.04605847,38.96274064]}},{"type":"Feature","properties":{"UNIT_CODE":"SACN","UNIT_NAME":"Saint Croix National Scenic Riverway","EVENT_NAME":"2016 National Parks BioBlitz - Saint Croix","STATE":"WI","DATE":"Fri. May 20 - Sat. May 21, 2016","PARK_URL":"https://www.nps.gov/sacn","INAT_URL":"http://www.inaturalist.org/projects/2016-national-parks-bioblitz-st-croix"},"geometry":{"type":"Point","coordinates":[-91.57848434,45.98021519]}},{"type":"Feature","properties":{"UNIT_CODE":"SAGA","UNIT_NAME":"Saint-Gaudens National Historic Site","EVENT_NAME":"2016 National Parks BioBlitz - Saint-Gaudens","STATE":"NH","DATE":"Fri. May 20 - Sun. May 22, 2016","PARK_URL":"https://www.nps.gov/saga","INAT_URL":"http://www.inaturalist.org/projects/2016-national-parks-bioblitz-saint-gaudens"},"geometry":{"type":"Point","coordinates":[-72.37403165,43.50046879]}},{"type":"Feature","properties":{"UNIT_CODE":"SAGU","UNIT_NAME":"Saguaro National Park","EVENT_NAME":"2016 National Parks BioBlitz - Saguaro Schoolyard BioBlitz","STATE":"AZ","DATE":"Fri. January 1 - Sat. December 31, 2016","PARK_URL":"https://www.nps.gov/sagu","INAT_URL":"http://www.inaturalist.org/projects/2016-national-parks-bioblitz-saguaro-schoolyard-bioblitz"},"geometry":{"type":"Point","coordinates":[-111.1497,32.261979]}},{"type":"Feature","properties":{"UNIT_CODE":"SAGU","UNIT_NAME":"Saguaro National Park","EVENT_NAME":"2016 National Parks BioBlitz - Saguaro Schoolyard BioBlitz","STATE":"AZ","DATE":"Fri. January 1 - Sat. December 31, 2016","PARK_URL":"https://www.nps.gov/sagu","INAT_URL":"http://www.inaturalist.org/projects/2016-national-parks-bioblitz-saguaro-schoolyard-bioblitz"},"geometry":{"type":"Point","coordinates":[-110.6077205,32.17893415]}},{"type":"Feature","properties":{"UNIT_CODE":"SAHI","UNIT_NAME":"Sagamore Hill National Historic Site","EVENT_NAME":"2016 National Parks BioBlitz - Sagamore Hill BirdBlitz","STATE":"NY","DATE":"Sun. May 29, 2016","PARK_URL":"https://www.nps.gov/sahi","INAT_URL":"http://www.inaturalist.org/projects/2016-national-parks-bioblitz-sagamore-hill-birdblitz"},"geometry":{"type":"Point","coordinates":[-73.49668653,40.88557279]}},{"type":"Feature","properties":{"UNIT_CODE":"SAJH","UNIT_NAME":"San Juan Island National Historical Park","EVENT_NAME":"2016 National Parks BioBlitz - San Juan Island","STATE":"WA","DATE":"Mon. May 16 - Sat. May 21, 2016","PARK_URL":"https://www.nps.gov/sajh","INAT_URL":"http://www.inaturalist.org/projects/2016-national-parks-bioblitz-san-juan-island"},"geometry":{"type":"Point","coordinates":[-123.0049793,48.462114]}},{"type":"Feature","properties":{"UNIT_CODE":"SAMO","UNIT_NAME":"Santa Monica Mountains National Recreation Area","EVENT_NAME":"2016 National Parks BioBlitz - Santa Monica Mountains","STATE":"CA","DATE":"Mon. May 16 - Sat. May 21, 2016","PARK_URL":"https://www.nps.gov/samo","INAT_URL":"http://www.inaturalist.org/projects/2016-national-parks-bioblitz-santa-monica-mountains"},"geometry":{"type":"Point","coordinates":[-118.7201796,34.08377085]}},{"type":"Feature","properties":{"UNIT_CODE":"SEKI","UNIT_NAME":"Sequoia and Kings Canyon National Parks","EVENT_NAME":"2016 National Parks BioBlitz - Sequoia and Kings Canyon","STATE":"CA","DATE":"Fri. May 20 - Sat. May 21, 2016","PARK_URL":"https://www.nps.gov/seki","INAT_URL":"http://www.inaturalist.org/projects/2016-national-parks-bioblitz-sequoia-and-kings-canyon"},"geometry":{"type":"Point","coordinates":[-118.5752033,36.50768379]}},{"type":"Feature","properties":{"UNIT_CODE":"SEKI","UNIT_NAME":"Sequoia and Kings Canyon National Parks","EVENT_NAME":"2016 National Parks BioBlitz - Sequoia and Kings Canyon: Newt Blitz","STATE":"CA","DATE":"Sat. March 5, 2016","PARK_URL":"https://www.nps.gov/seki","INAT_URL":"http://www.inaturalist.org/projects/seki-newt-bioblitz"},"geometry":{"type":"Point","coordinates":[-118.55604,36.871379]}},{"type":"Feature","properties":{"UNIT_CODE":"SHEN","UNIT_NAME":"Shenandoah National Park","EVENT_NAME":"2016 National Parks BioBlitz - Shenandoah: Mycological Foray","STATE":"VA","DATE":"Thu. September 8 - Sun. September 11, 2016","PARK_URL":"https://www.nps.gov/shen","INAT_URL":"http://www.inaturalist.org/projects/2016-national-parks-bioblitz-shenandoah-mycological-foray"},"geometry":{"type":"Point","coordinates":[-78.67619963,38.28106541]}},{"type":"Feature","properties":{"UNIT_CODE":"SLBE","UNIT_NAME":"Sleeping Bear Dunes National Lakeshore","EVENT_NAME":"2016 National Parks BioBlitz - Sleeping Bear Dunes","STATE":"MI","DATE":"Fri. September 16 - Sat. September 17, 2016","PARK_URL":"https://www.nps.gov/slbe","INAT_URL":"http://www.inaturalist.org/projects/2016-national-parks-bioblitz-sleeping-bear-dunes"},"geometry":{"type":"Point","coordinates":[-86.01521888,45.11160542]}},{"type":"Feature","properties":{"UNIT_CODE":"TAPR","UNIT_NAME":"Tallgrass Prairie National Preserve","EVENT_NAME":"2016 National Parks BioBlitz - Tallgrass Prairie Pollinators: Wildflowers and Butterflies","STATE":"KS","DATE":"Sat. June 18 - Sun. June 19, 2016","PARK_URL":"https://www.nps.gov/tapr","INAT_URL":"http://www.inaturalist.org/projects/2016-national-parks-bioblitz-tallgrass-prairie-pollinators-wildflowers-and-butterflies"},"geometry":{"type":"Point","coordinates":[-96.57387273,38.45135719]}},{"type":"Feature","properties":{"UNIT_CODE":"THRO","UNIT_NAME":"Theodore Roosevelt National Park","EVENT_NAME":"2016 National Parks BioBlitz - Theodore Roosevelt","STATE":"ND","DATE":"Fri. June 24 - Sat. June 25, 2016","PARK_URL":"https://www.nps.gov/thro","INAT_URL":"http://www.inaturalist.org/projects/2016-national-parks-bioblitz-theodore-roosevelt"},"geometry":{"type":"Point","coordinates":[-103.4592227,46.95359206]}},{"type":"Feature","properties":{"UNIT_CODE":"TICA","UNIT_NAME":"Timpanogos Cave National Monument","EVENT_NAME":"2016 National Parks Bioblitz - Timpanogos Cave","STATE":"UT","DATE":"Wed. June 8, 2016","PARK_URL":"http://www.usee.org/events/bioblitz-2016","INAT_URL":"http://www.inaturalist.org/projects/2016-national-parks-bioblitz-timpanogos-cave"},"geometry":{"type":"Point","coordinates":[-111.7093944,40.44039704]}},{"type":"Feature","properties":{"UNIT_CODE":"TUMA","UNIT_NAME":"Tumacacori National Historical Park","EVENT_NAME":"2016 National Parks BioBlitz - Tumacacori Pollinator BioBlitz","STATE":"AZ","DATE":"Sat. August 20, 2016","PARK_URL":"https://www.nps.gov/tuma","INAT_URL":"http://www.inaturalist.org/projects/2016-national-parks-bioblitz-tumacacori-pollinator-bioblitz"},"geometry":{"type":"Point","coordinates":[-111.047764,31.57283049]}},{"type":"Feature","properties":{"UNIT_CODE":"UPDE","UNIT_NAME":"Upper Delaware Scenic and Recreational River","EVENT_NAME":"2016 National Parks BioBlitz - Upper Delaware","STATE":"PA","DATE":"Fri. June 24 - Sat. June 25, 2016","PARK_URL":"https://www.nps.gov/upde","INAT_URL":"http://www.inaturalist.org/projects/2016-national-parks-bioblitz-upper-delaware"},"geometry":{"type":"Point","coordinates":[-75.00963121,41.5167673]}},{"type":"Feature","properties":{"UNIT_CODE":"VAFO","UNIT_NAME":"Valley Forge NHP","EVENT_NAME":"2016 National Parks BioBlitz - Valley Forge: Wildlife Watchers Photoblitz","STATE":"PA","DATE":"Mon. May 16 - Sun. May 22, 2016","PARK_URL":"https://www.nps.gov/vafo","INAT_URL":"http://www.inaturalist.org/projects/2016-national-parks-bioblitz-valley-forge-wildlife-watchers-photoblitz"},"geometry":{"type":"Point","coordinates":[-75.44574105,40.10061168]}},{"type":"Feature","properties":{"UNIT_CODE":"VALL","UNIT_NAME":"Valles Caldera National Preserve","EVENT_NAME":"2016 National Parks BioBlitz - Valles Caldera","STATE":"NM","DATE":"Sat. August 27, 2016","PARK_URL":"https://www.nps.gov/vall","INAT_URL":"http://www.inaturalist.org/projects/2016-national-parks-bioblitz-valles-caldera"},"geometry":{"type":"Point","coordinates":[-106.487006,35.832105]}},{"type":"Feature","properties":{"UNIT_CODE":"VOYA","UNIT_NAME":"Voyageurs National Park","EVENT_NAME":"2016 National Parks BioBlitz - Voyageurs","STATE":"MN","DATE":"Fri. October 7 - Sat. October 8, 2016","PARK_URL":"https://www.nps.gov/voya","INAT_URL":"http://www.inaturalist.org/projects/2016-national-parks-bioblitz-voyageurs"},"geometry":{"type":"Point","coordinates":[-92.83720626,48.48327144]}},{"type":"Feature","properties":{"UNIT_CODE":"WEFA","UNIT_NAME":"Weir Farm National Historic Site","EVENT_NAME":"2016 National Parks BioBlitz - Weir Farm","STATE":"CT","DATE":"Fri. May 20 - Sat. May 21, 2016","PARK_URL":"https://www.nps.gov/wefa","INAT_URL":"http://www.inaturalist.org/projects/2016-national-parks-bioblitz-weir-farm"},"geometry":{"type":"Point","coordinates":[-73.45648717,41.25675816]}},{"type":"Feature","properties":{"UNIT_CODE":"WHIS","UNIT_NAME":"Whiskeytown National Recreation Area","EVENT_NAME":"2016 National Parks BioBlitz - Whiskeytown: Birds, Bees, and Butterflies BioBlitz","STATE":"CA","DATE":"Fri. May 13 - Sat. May 14, 2016","PARK_URL":"https://www.nps.gov/whis","INAT_URL":"http://www.inaturalist.org/projects/2016-national-parks-bioblitz-whiskeytown-birds-bees-and-butterflies-bioblitz"},"geometry":{"type":"Point","coordinates":[-122.6022603,40.6135802]}},{"type":"Feature","properties":{"UNIT_CODE":"WICA","UNIT_NAME":"Wind Cave National Park","EVENT_NAME":"2016 National Parks BioBlitz - Wind Cave Bird Blitz","STATE":"SD","DATE":"Sat. May 21, 2016","PARK_URL":"https://www.nps.gov/wica","INAT_URL":"http://www.inaturalist.org/projects/2016-national-parks-bioblitz-wind-cave-bird-blitz"},"geometry":{"type":"Point","coordinates":[-103.4390924,43.5802025]}},{"type":"Feature","properties":{"UNIT_CODE":"WOTR","UNIT_NAME":"Wolf Trap National Park for the Performing Arts","EVENT_NAME":"2016 National Parks BioBlitz - Wolf Trap","STATE":"VA","DATE":"Sat. May 21, 2016","PARK_URL":"https://www.nps.gov/wotr","INAT_URL":"http://www.inaturalist.org/projects/2016-national-parks-bioblitz-wolf-trap"},"geometry":{"type":"Point","coordinates":[-77.26355408,38.9379319]}},{"type":"Feature","properties":{"UNIT_CODE":"YELL","UNIT_NAME":"Yellowstone National Park","EVENT_NAME":"2016 National Parks BioBlitz - Yellowstone Dragonfly Hg","STATE":"WY","DATE":"Sun. May 15 - Mon. August 15, 2016","PARK_URL":"https://www.nps.gov/yell","INAT_URL":"http://www.inaturalist.org/projects/2016-national-parks-bioblitz-yellowstone-dragonfly-hg"},"geometry":{"type":"Point","coordinates":[-110.5471962,44.59644457]}},{"type":"Feature","properties":{"UNIT_CODE":"YOSE","UNIT_NAME":"Yosemite National Park","EVENT_NAME":"2016 National Parks BioBlitz - Yosemite BloomBlitz","STATE":"CA","DATE":"Sun. May 22, 2016","PARK_URL":"https://www.nps.gov/yose","INAT_URL":"http://www.inaturalist.org/projects/2016-national-parks-bioblitz-yosemite-bloomblitz"},"geometry":{"type":"Point","coordinates":[-119.5569774,37.84832509]}},{"type":"Feature","properties":{"UNIT_CODE":"ZION","UNIT_NAME":"Zion National Park","EVENT_NAME":"2016 National Parks BioBlitz - Zion Dragonfly BioBlitz","STATE":"UT","DATE":"Wed. July 13, 2016","PARK_URL":"https://www.nps.gov/zion","INAT_URL":"http://www.inaturalist.org/projects/2016-national-parks-bioblitz-zion-dragonfly-bioblitz"},"geometry":{"type":"Point","coordinates":[-113.026442,37.29823699]}},{"type":"Feature","properties":{"UNIT_CODE":"CAVO","UNIT_NAME":"Capulin Volcano National Monument","EVENT_NAME":"2016 National Parks BioBlitz - Capulin Volcano","STATE":"NM","DATE":"Sat. July 30, 2016","PARK_URL":"https://www.nps.gov/cavo","INAT_URL":"http://www.inaturalist.org/projects/2016-national-parks-bioblitz-capulin-volcano"},"geometry":{"type":"Point","coordinates":[-103.9710428,36.78171068]}},{"type":"Feature","properties":{"UNIT_CODE":"SAAN","UNIT_NAME":"San Antonio Missions National Historical Park","EVENT_NAME":"2016 National Parks BioBlitz - San Antonio Missions","STATE":"TX","DATE":"Fri. October 28 - Sat. October 29, 2016","PARK_URL":"https://www.nps.gov/saan","INAT_URL":"http://www.inaturalist.org/places/san-antonio-missions-national-historical-park"},"geometry":{"type":"Point","coordinates":[-98.45466742,29.33273056]}},{"type":"Feature","properties":{"UNIT_CODE":"SAPU","UNIT_NAME":"Salinas Pueblo Missions National Monument","EVENT_NAME":"2016 National Parks BioBlitz - Salinas Pueblo Missions BirdBlitz","STATE":"NM","DATE":"Sat. May 14, 2016\n","PARK_URL":"https://www.nps.gov/sapu","INAT_URL":"http://www.inaturalist.org/places/salinas-pueblo-missions-national-monument"},"geometry":{"type":"Point","coordinates":[-106.0897997,34.25942389]}},{"type":"Feature","properties":{"UNIT_CODE":"SAPU","UNIT_NAME":"Salinas Pueblo Missions National Monument","EVENT_NAME":"2016 National Parks BioBlitz - Salinas Pueblo Missions Star Party","STATE":"NM","DATE":"Sat. September 24, 2016","PARK_URL":"https://www.nps.gov/sapu","INAT_URL":"http://www.inaturalist.org/places/salinas-pueblo-missions-national-monument"},"geometry":{"type":"Point","coordinates":[-106.093024,34.259762]}},{"type":"Feature","properties":{"UNIT_CODE":"HUTR","UNIT_NAME":"Hubbell Trading Post National Historic Site","EVENT_NAME":"2016 National Parks BioBlitz - Hubbell Trading Post","STATE":"AZ","DATE":"Fri. May 20 - Sat. May 21, 2016","PARK_URL":"https://www.nps.gov/hutr","INAT_URL":"http://www.inaturalist.org/places/hubbell-trading-post-national-historic-site"},"geometry":{"type":"Point","coordinates":[-109.5599516,35.70727316]}},{"type":"Feature","properties":{"UNIT_CODE":"ROMO","UNIT_NAME":"Rocky Mountain National Park","EVENT_NAME":"2016 National Parks BioBlitz - Rocky Mountain","STATE":"CO","DATE":"TBA","PARK_URL":"https://www.nps.gov/romo","INAT_URL":"http://www.inaturalist.org/places/rocky-mountain-national-park"},"geometry":{"type":"Point","coordinates":[-105.697769,40.35565995]}},{"type":"Feature","properties":{"UNIT_CODE":"GRCA","UNIT_NAME":"Grand Canyon National Park","EVENT_NAME":"2016 National Parks BioBlitz - Grand Canyon","STATE":"AZ","DATE":"TBA","PARK_URL":"https://www.nps.gov/grca","INAT_URL":"http://www.inaturalist.org/places/grand-canyon-national-park--2"},"geometry":{"type":"Point","coordinates":[-112.185254,36.18654515]}}]}