{"type":"FeatureCollection","features":[{"geometry": {"type": "Point", "coordinates": [-117.23884750996902, 32.67252068382122]}, "type": "Feature", "id": 44, "properties": {"ShorelineMiles": "1.5", "Region": "Pacific West", "UNIT_CODE": "CABR", "Map_URL": "https://www.nps.gov/orgs/1439/upload/CABR.pdf", "Park_URL": "https://www.nps.gov/CABR", "WaterAcres": "5.1", "Full_Name": "Cabrillo National Monument"}},{"geometry": {"type": "Point", "coordinates": [-119.72516984514738, 34.00390795736478]}, "type": "Feature", "id": 70, "properties": {"ShorelineMiles": "249.8", "Region": "Pacific West", "UNIT_CODE": "CHIS", "Map_URL": "https://www.nps.gov/orgs/1439/upload/CHIS.pdf", "Park_URL": "https://www.nps.gov/CHIS", "WaterAcres": "120,588.0", "Full_Name": "Channel Islands National Park"}},{"geometry": {"type": "Point", "coordinates": [-122.68900881125177, 48.213492875554415]}, "type": "Feature", "id": 98, "properties": {"ShorelineMiles": "22.0", "Region": "Pacific West", "UNIT_CODE": "EBLA", "Map_URL": "https://www.nps.gov/orgs/1439/upload/EBLA.pdf", "Park_URL": "https://www.nps.gov/EBLA", "WaterAcres": "3,897.0", "Full_Name": "Ebey's Landing National Historical Reserve"}},{"geometry": {"type": "Point", "coordinates": [-122.47371721829519, 37.80840018265261]}, "type": "Feature", "id": 124, "properties": {"ShorelineMiles": "0.4", "Region": "Pacific West", "UNIT_CODE": "FOPO", "Map_URL": "https://www.nps.gov/orgs/1439/upload/FOPO.pdf", "Park_URL": "https://www.nps.gov/FOPO", "WaterAcres": "0.0", "Full_Name": "Fort Point National Historic Site"}},{"geometry": {"type": "Point", "coordinates": [-122.55146603333486, 37.86264191412425]}, "type": "Feature", "id": 153, "properties": {"ShorelineMiles": "109.1", "Region": "Pacific West", "UNIT_CODE": "GOGA", "Map_URL": "https://www.nps.gov/orgs/1439/upload/GOGA.pdf", "Park_URL": "https://www.nps.gov/GOGA", "WaterAcres": "9,898.4", "Full_Name": "Golden Gate National Recreation Area"}},{"geometry": {"type": "Point", "coordinates": [-156.14857132862775, 20.707282938680397]}, "type": "Feature", "id": 172, "properties": {"ShorelineMiles": "2.5", "Region": "Pacific West", "UNIT_CODE": "HALE", "Map_URL": "https://www.nps.gov/orgs/1439/upload/HALE.pdf", "Park_URL": "https://www.nps.gov/HALE", "WaterAcres": "0.0", "Full_Name": "Haleakala National Park"}},{"geometry": {"type": "Point", "coordinates": [-155.2118228719388, 19.326127911672206]}, "type": "Feature", "id": 174, "properties": {"ShorelineMiles": "33.0", "Region": "Pacific West", "UNIT_CODE": "HAVO", "Map_URL": "https://www.nps.gov/orgs/1439/upload/HAVO.pdf", "Park_URL": "https://www.nps.gov/HAVO", "WaterAcres": "0.0", "Full_Name": "Hawaii Volcanoes National Park"}},{"geometry": {"type": "Point", "coordinates": [-156.03071959658595, 19.680825063147587]}, "type": "Feature", "id": 203, "properties": {"ShorelineMiles": "5.5", "Region": "Pacific West", "UNIT_CODE": "KAHO", "Map_URL": "https://www.nps.gov/orgs/1439/upload/KAHO.pdf", "Park_URL": "https://www.nps.gov/KAHO", "WaterAcres": "613.0", "Full_Name": "Kaloko-Honokohau National Historical Park"}},{"geometry": {"type": "Point", "coordinates": [-156.92464982651128, 21.154640886083765]}, "type": "Feature", "id": 204, "properties": {"ShorelineMiles": "22.0", "Region": "Pacific West", "UNIT_CODE": "KALA", "Map_URL": "https://www.nps.gov/orgs/1439/upload/KALA.pdf", "Park_URL": "https://www.nps.gov/KALA", "WaterAcres": "1,938.8", "Full_Name": "Kalaupapa National Historical Park"}},{"geometry": {"type": "Point", "coordinates": [-123.88911456405377, 46.13121388095654]}, "type": "Feature", "id": 222, "properties": {"ShorelineMiles": "13.8", "Region": "Pacific West", "UNIT_CODE": "LEWI", "Map_URL": "https://www.nps.gov/orgs/1439/upload/LEWI.pdf", "Park_URL": "https://www.nps.gov/LEWI", "WaterAcres": "121.7", "Full_Name": "Lewis and Clark National Historical Park"}},{"geometry": {"type": "Point", "coordinates": [-170.69090004630297, -14.258851156551954]}, "type": "Feature", "id": 272, "properties": {"ShorelineMiles": "37.2", "Region": "Pacific West", "UNIT_CODE": "NPSA", "Map_URL": "https://www.nps.gov/orgs/1439/upload/NPSA.pdf", "Park_URL": "https://www.nps.gov/NPSA", "WaterAcres": "4,540.8", "Full_Name": "National Park of American Samoa"}},{"geometry": {"type": "Point", "coordinates": [-123.41061737977437, 47.780204488784214]}, "type": "Feature", "id": 275, "properties": {"ShorelineMiles": "93.0", "Region": "Pacific West", "UNIT_CODE": "OLYM", "Map_URL": "https://www.nps.gov/orgs/1439/upload/OLYM.pdf", "Park_URL": "https://www.nps.gov/OLYM", "WaterAcres": "4,432.0", "Full_Name": "Olympic National Park"}},{"geometry": {"type": "Point", "coordinates": [-122.87970440776165, 38.05500554598783]}, "type": "Feature", "id": 295, "properties": {"ShorelineMiles": "120.2", "Region": "Pacific West", "UNIT_CODE": "PORE", "Map_URL": "https://www.nps.gov/orgs/1439/upload/PORE.pdf", "Park_URL": "https://www.nps.gov/PORE", "WaterAcres": "12,312.0", "Full_Name": "Point Reyes National Seashore"}},{"geometry": {"type": "Point", "coordinates": [-155.82067539647886, 20.02756411716137]}, "type": "Feature", "id": 298, "properties": {"ShorelineMiles": "0.3", "Region": "Pacific West", "UNIT_CODE": "PUHE", "Map_URL": "https://www.nps.gov/orgs/1439/upload/PUHE.pdf", "Park_URL": "https://www.nps.gov/PUHE", "WaterAcres": "5.3", "Full_Name": "Pu'ukohola Heiau National Historic Site"}},{"geometry": {"type": "Point", "coordinates": [-155.8923004061082, 19.409211055098005]}, "type": "Feature", "id": 299, "properties": {"ShorelineMiles": "2.5", "Region": "Pacific West", "UNIT_CODE": "PUHO", "Map_URL": "https://www.nps.gov/orgs/1439/upload/PUHO.pdf", "Park_URL": "https://www.nps.gov/PUHO", "WaterAcres": "0.0", "Full_Name": "Pu'uhonua o Honaunau National Historical Park"}},{"geometry": {"type": "Point", "coordinates": [-124.0048296801418, 41.2768592510955]}, "type": "Feature", "id": 301, "properties": {"ShorelineMiles": "48.0", "Region": "Pacific West", "UNIT_CODE": "REDW", "Map_URL": "https://www.nps.gov/orgs/1439/upload/REDW.pdf", "Park_URL": "https://www.nps.gov/REDW", "WaterAcres": "5,793.0", "Full_Name": "Redwood National and State Parks"}},{"geometry": {"type": "Point", "coordinates": [-122.36653503380101, 37.9086682021409]}, "type": "Feature", "id": 307, "properties": {"ShorelineMiles": "4.7", "Region": "Pacific West", "UNIT_CODE": "RORI", "Map_URL": "https://www.nps.gov/orgs/1439/upload/RORI.pdf", "Park_URL": "https://www.nps.gov/RORI", "WaterAcres": "7.4", "Full_Name": "Rosie the Riveter/World War II Home Front National Historical Park"}},{"geometry": {"type": "Point", "coordinates": [-122.42364633349071, 37.80857188401122]}, "type": "Feature", "id": 314, "properties": {"ShorelineMiles": "0.7", "Region": "Pacific West", "UNIT_CODE": "SAFR", "Map_URL": "https://www.nps.gov/orgs/1439/upload/SAFR.pdf", "Park_URL": "https://www.nps.gov/SAFR", "WaterAcres": "84.9", "Full_Name": "San Francisco Maritime National Historical Park"}},{"geometry": {"type": "Point", "coordinates": [-123.00483255918185, 48.4620378764964]}, "type": "Feature", "id": 319, "properties": {"ShorelineMiles": "7.3", "Region": "Pacific West", "UNIT_CODE": "SAJH", "Map_URL": "https://www.nps.gov/orgs/1439/upload/SAJH.pdf", "Park_URL": "https://www.nps.gov/SAJH", "WaterAcres": "0.0", "Full_Name": "San Juan Island National Historical Park"}},{"geometry": {"type": "Point", "coordinates": [-118.72034382498776, 34.08030291161654]}, "type": "Feature", "id": 322, "properties": {"ShorelineMiles": "40.0", "Region": "Pacific West", "UNIT_CODE": "SAMO", "Map_URL": "https://www.nps.gov/orgs/1439/upload/SAMO.pdf", "Park_URL": "https://www.nps.gov/SAMO", "WaterAcres": "0.0", "Full_Name": "Santa Monica Mountains National Recreation Area"}},{"geometry": {"type": "Point", "coordinates": [144.71560523858793, 13.47319808324598]}, "type": "Feature", "id": 368, "properties": {"ShorelineMiles": "6.3", "Region": "Pacific West", "UNIT_CODE": "WAPA", "Map_URL": "https://www.nps.gov/orgs/1439/upload/WAPA.pdf", "Park_URL": "https://www.nps.gov/WAPA", "WaterAcres": "991.0", "Full_Name": "War in the Pacific National Historical Park"}},{"geometry": {"type": "Point", "coordinates": [-157.9499856045195, 21.3648737153525]}, "type": "Feature", "id": 389, "properties": {"ShorelineMiles": "0.4", "Region": "Pacific West", "UNIT_CODE": "VALR", "Map_URL": "https://www.nps.gov/orgs/1439/upload/VALR.pdf", "Park_URL": "https://www.nps.gov/VALR", "WaterAcres": "0.4", "Full_Name": "World War II Valor in the Pacific National Monument"}},{"geometry": {"type": "Point", "coordinates": [-122.0228416865951, 38.05443142738908]}, "type": "Feature", "id": 392, "properties": {"ShorelineMiles": "0.1", "Region": "Pacific West", "UNIT_CODE": "POCH", "Map_URL": "https://www.nps.gov/orgs/1439/upload/POCH.pdf", "Park_URL": "https://www.nps.gov/POCH", "WaterAcres": "1.0", "Full_Name": "Port Chicago Naval Magazine National Memorial"}},{"geometry": {"type": "Point", "coordinates": [-122.50920451590899, 47.61525790471508]}, "type": "Feature", "id": 396, "properties": {"ShorelineMiles": "0.1", "Region": "Pacific West", "UNIT_CODE": "MIIN", "Map_URL": "https://www.nps.gov/orgs/1439/upload/MIIN.pdf", "Park_URL": "https://www.nps.gov/MIIN", "WaterAcres": "0.0", "Full_Name": "Minidoka National Historic Site"}}]}