{"type":"FeatureCollection","features":[{"geometry": {"type": "Point", "coordinates": [-117.23884750996902, 32.67252068382122]}, "type": "Feature", "id": 44, "properties": {"Region": "Pacific West", "Map_URL": "http://www.nature.nps.gov/water/oceancoastal/assets/images/parkmaps/CABR.pdf", "Park_URL": "http://www.nps.gov/CABR", "Full_Name": "Cabrillo National Monument", "UNIT_CODE": "CABR"}},{"geometry": {"type": "Point", "coordinates": [-119.72516984514738, 34.00390795736478]}, "type": "Feature", "id": 70, "properties": {"Region": "Pacific West", "Map_URL": "http://www.nature.nps.gov/water/oceancoastal/assets/images/parkmaps/CHIS.pdf", "Park_URL": "http://www.nps.gov/CHIS", "Full_Name": "Channel Islands National Park", "UNIT_CODE": "CHIS"}},{"geometry": {"type": "Point", "coordinates": [-122.68900881125177, 48.213492875554415]}, "type": "Feature", "id": 98, "properties": {"Region": "Pacific West", "Map_URL": "http://www.nature.nps.gov/water/oceancoastal/assets/images/parkmaps/EBLA.pdf", "Park_URL": "http://www.nps.gov/EBLA", "Full_Name": "Ebey's Landing National Historical Reserve", "UNIT_CODE": "EBLA"}},{"geometry": {"type": "Point", "coordinates": [-122.47371721829519, 37.80840018265261]}, "type": "Feature", "id": 124, "properties": {"Region": "Pacific West", "Map_URL": "http://www.nature.nps.gov/water/oceancoastal/assets/images/parkmaps/FOPO.pdf", "Park_URL": "http://www.nps.gov/FOPO", "Full_Name": "Fort Point National Historic Site", "UNIT_CODE": "FOPO"}},{"geometry": {"type": "Point", "coordinates": [-122.55146603333486, 37.86264191412424]}, "type": "Feature", "id": 153, "properties": {"Region": "Pacific West", "Map_URL": "http://www.nature.nps.gov/water/oceancoastal/assets/images/parkmaps/GOGA.pdf", "Park_URL": "http://www.nps.gov/GOGA", "Full_Name": "Golden Gate National Recreation Area", "UNIT_CODE": "GOGA"}},{"geometry": {"type": "Point", "coordinates": [-156.14857132862775, 20.707282938680397]}, "type": "Feature", "id": 172, "properties": {"Region": "Pacific West", "Map_URL": "http://www.nature.nps.gov/water/oceancoastal/assets/images/parkmaps/HALE.pdf", "Park_URL": "http://www.nps.gov/HALE", "Full_Name": "Haleakala National Park", "UNIT_CODE": "HALE"}},{"geometry": {"type": "Point", "coordinates": [-155.2118228719388, 19.326127911672206]}, "type": "Feature", "id": 174, "properties": {"Region": "Pacific West", "Map_URL": "http://www.nature.nps.gov/water/oceancoastal/assets/images/parkmaps/HAVO.pdf", "Park_URL": "http://www.nps.gov/HAVO", "Full_Name": "Hawaii Volcanoes National Park", "UNIT_CODE": "HAVO"}},{"geometry": {"type": "Point", "coordinates": [-156.03071959658595, 19.680825063147573]}, "type": "Feature", "id": 203, "properties": {"Region": "Pacific West", "Map_URL": "http://www.nature.nps.gov/water/oceancoastal/assets/images/parkmaps/KAHO.pdf", "Park_URL": "http://www.nps.gov/KAHO", "Full_Name": "Kaloko-Honokohau National Historical Park", "UNIT_CODE": "KAHO"}},{"geometry": {"type": "Point", "coordinates": [-156.92464982651128, 21.154640886083765]}, "type": "Feature", "id": 204, "properties": {"Region": "Pacific West", "Map_URL": "http://www.nature.nps.gov/water/oceancoastal/assets/images/parkmaps/KALA.pdf", "Park_URL": "http://www.nps.gov/KALA", "Full_Name": "Kalaupapa National Historical Park", "UNIT_CODE": "KALA"}},{"geometry": {"type": "Point", "coordinates": [-123.88911456405377, 46.13121388095654]}, "type": "Feature", "id": 222, "properties": {"Region": "Pacific West", "Map_URL": "http://www.nature.nps.gov/water/oceancoastal/assets/images/parkmaps/LEWI.pdf", "Park_URL": "http://www.nps.gov/LEWI", "Full_Name": "Lewis and Clark National Historical Park", "UNIT_CODE": "LEWI"}},{"geometry": {"type": "Point", "coordinates": [-170.69090004630297, -14.258851156551954]}, "type": "Feature", "id": 272, "properties": {"Region": "Pacific West", "Map_URL": "http://www.nature.nps.gov/water/oceancoastal/assets/images/parkmaps/NPSA.pdf", "Park_URL": "http://www.nps.gov/NPSA", "Full_Name": "National Park of American Samoa", "UNIT_CODE": "NPSA"}},{"geometry": {"type": "Point", "coordinates": [-123.41061737977437, 47.780204488784214]}, "type": "Feature", "id": 275, "properties": {"Region": "Pacific West", "Map_URL": "http://www.nature.nps.gov/water/oceancoastal/assets/images/parkmaps/OLYM.pdf", "Park_URL": "http://www.nps.gov/OLYM", "Full_Name": "Olympic National Park", "UNIT_CODE": "OLYM"}},{"geometry": {"type": "Point", "coordinates": [-122.87970440776165, 38.05500554598783]}, "type": "Feature", "id": 295, "properties": {"Region": "Pacific West", "Map_URL": "http://www.nature.nps.gov/water/oceancoastal/assets/images/parkmaps/PORE.pdf", "Park_URL": "http://www.nps.gov/PORE", "Full_Name": "Point Reyes National Seashore", "UNIT_CODE": "PORE"}},{"geometry": {"type": "Point", "coordinates": [-155.82067539647886, 20.02756411716137]}, "type": "Feature", "id": 298, "properties": {"Region": "Pacific West", "Map_URL": "http://www.nature.nps.gov/water/oceancoastal/assets/images/parkmaps/PUHE.pdf", "Park_URL": "http://www.nps.gov/PUHE", "Full_Name": "Pu'ukohola Heiau National Historic Site", "UNIT_CODE": "PUHE"}},{"geometry": {"type": "Point", "coordinates": [-155.8923004061082, 19.409211055097995]}, "type": "Feature", "id": 299, "properties": {"Region": "Pacific West", "Map_URL": "http://www.nature.nps.gov/water/oceancoastal/assets/images/parkmaps/PUHO.pdf", "Park_URL": "http://www.nps.gov/PUHO", "Full_Name": "Pu'uhonua o Honaunau National Historical Park", "UNIT_CODE": "PUHO"}},{"geometry": {"type": "Point", "coordinates": [-124.0048296801418, 41.2768592510955]}, "type": "Feature", "id": 301, "properties": {"Region": "Pacific West", "Map_URL": "http://www.nature.nps.gov/water/oceancoastal/assets/images/parkmaps/REDW.pdf", "Park_URL": "http://www.nps.gov/REDW", "Full_Name": "Redwood National and State Parks", "UNIT_CODE": "REDW"}},{"geometry": {"type": "Point", "coordinates": [-122.36653503380101, 37.9086682021409]}, "type": "Feature", "id": 307, "properties": {"Region": "Pacific West", "Map_URL": "http://www.nature.nps.gov/water/oceancoastal/assets/images/parkmaps/RORI.pdf", "Park_URL": "http://www.nps.gov/RORI", "Full_Name": "Rosie the Riveter/World War II Home Front National Historical Park", "UNIT_CODE": "RORI"}},{"geometry": {"type": "Point", "coordinates": [-122.42364633349071, 37.80857188401122]}, "type": "Feature", "id": 314, "properties": {"Region": "Pacific West", "Map_URL": "http://www.nature.nps.gov/water/oceancoastal/assets/images/parkmaps/SAFR.pdf", "Park_URL": "http://www.nps.gov/SAFR", "Full_Name": "San Francisco Maritime National Historical Park", "UNIT_CODE": "SAFR"}},{"geometry": {"type": "Point", "coordinates": [-123.00483255918185, 48.4620378764964]}, "type": "Feature", "id": 319, "properties": {"Region": "Pacific West", "Map_URL": "http://www.nature.nps.gov/water/oceancoastal/assets/images/parkmaps/SAJH.pdf", "Park_URL": "http://www.nps.gov/SAJH", "Full_Name": "San Juan Island National Historical Park", "UNIT_CODE": "SAJH"}},{"geometry": {"type": "Point", "coordinates": [-118.72034382498776, 34.08030291161654]}, "type": "Feature", "id": 322, "properties": {"Region": "Pacific West", "Map_URL": "http://www.nature.nps.gov/water/oceancoastal/assets/images/parkmaps/SAMO.pdf", "Park_URL": "http://www.nps.gov/SAMO", "Full_Name": "Santa Monica Mountains National Recreation Area", "UNIT_CODE": "SAMO"}},{"geometry": {"type": "Point", "coordinates": [144.71560523858793, 13.47319808324598]}, "type": "Feature", "id": 368, "properties": {"Region": "Pacific West", "Map_URL": "http://www.nature.nps.gov/water/oceancoastal/assets/images/parkmaps/WAPA.pdf", "Park_URL": "http://www.nps.gov/WAPA", "Full_Name": "War in the Pacific National Historical Park", "UNIT_CODE": "WAPA"}},{"geometry": {"type": "Point", "coordinates": [-157.9499856045195, 21.3648737153525]}, "type": "Feature", "id": 389, "properties": {"Region": "Pacific West", "Map_URL": "http://www.nature.nps.gov/water/oceancoastal/assets/images/parkmaps/VALR.pdf", "Park_URL": "http://www.nps.gov/VALR", "Full_Name": "World War II Valor in the Pacific National Monument", "UNIT_CODE": "VALR"}},{"geometry": {"type": "Point", "coordinates": [-122.0228416865951, 38.05443142738908]}, "type": "Feature", "id": 392, "properties": {"Region": "Pacific West", "Map_URL": "http://www.nature.nps.gov/water/oceancoastal/assets/images/parkmaps/POCH.pdf", "Park_URL": "http://www.nps.gov/POCH", "Full_Name": "Port Chicago Naval Magazine National Memorial", "UNIT_CODE": "POCH"}},{"geometry": {"type": "Point", "coordinates": [-122.50920451590899, 47.61525790471508]}, "type": "Feature", "id": 396, "properties": {"Region": "Pacific West", "Map_URL": "http://www.nature.nps.gov/water/oceancoastal/assets/images/parkmaps/MIIN.pdf", "Park_URL": "http://www.nps.gov/MIIN", "Full_Name": "Minidoka National Historic Site", "UNIT_CODE": "MIIN"}}]}