{"type":"FeatureCollection","features":[{"geometry": {"type": "Point", "coordinates": [-157.81119702859354, 56.871920400265594]}, "type": "Feature", "id": 11, "properties": {"Region_Ocean": "Alaska", "ShorelineMiles": "135.0", "Region": "Alaska", "UNIT_CODE": "ANIA", "Map_URL": "https://www.nps.gov/orgs/1439/upload/ANIA.pdf", "Park_URL": "https://www.nps.gov/ANIA", "WaterAcres": "0.0", "Full_Name": "Aniakchak National Monument and Preserve"}},{"geometry": {"type": "Point", "coordinates": [-163.92080607507236, 65.7570484783541]}, "type": "Feature", "id": 23, "properties": {"Region_Ocean": "Alaska", "ShorelineMiles": "571.0", "Region": "Alaska", "UNIT_CODE": "BELA", "Map_URL": "https://www.nps.gov/orgs/1439/upload/BELA.pdf", "Park_URL": "https://www.nps.gov/BELA", "WaterAcres": "87,808.0", "Full_Name": "Bering Land Bridge National Preserve"}},{"geometry": {"type": "Point", "coordinates": [-163.50257451500838, 67.41218378652412]}, "type": "Feature", "id": 50, "properties": {"Region_Ocean": "Alaska", "ShorelineMiles": "375.0", "Region": "Alaska", "UNIT_CODE": "CAKR", "Map_URL": "https://www.nps.gov/orgs/1439/upload/CAKR.pdf", "Park_URL": "https://www.nps.gov/CAKR", "WaterAcres": "27,349.0", "Full_Name": "Cape Krusenstern National Monument"}},{"geometry": {"type": "Point", "coordinates": [-136.13594319832902, 58.75191954464255]}, "type": "Feature", "id": 151, "properties": {"Region_Ocean": "Alaska", "ShorelineMiles": "1,179.0", "Region": "Alaska", "UNIT_CODE": "GLBA", "Map_URL": "https://www.nps.gov/orgs/1439/upload/GLBA.pdf", "Park_URL": "https://www.nps.gov/GLBA", "WaterAcres": "598,611.0", "Full_Name": "Glacier Bay National Park and Preserve"}},{"geometry": {"type": "Point", "coordinates": [-155.70897106858996, 58.54672926164315]}, "type": "Feature", "id": 205, "properties": {"Region_Ocean": "Alaska", "ShorelineMiles": "458.0", "Region": "Alaska", "UNIT_CODE": "KATM", "Map_URL": "https://www.nps.gov/orgs/1439/upload/KATM.pdf", "Park_URL": "https://www.nps.gov/KATM", "WaterAcres": "0.0", "Full_Name": "Katmai National Park and Preserve"}},{"geometry": {"type": "Point", "coordinates": [-149.88152448868522, 59.953208123950475]}, "type": "Feature", "id": 206, "properties": {"Region_Ocean": "Alaska", "ShorelineMiles": "545.0", "Region": "Alaska", "UNIT_CODE": "KEFJ", "Map_URL": "https://www.nps.gov/orgs/1439/upload/KEFJ.pdf", "Park_URL": "https://www.nps.gov/KEFJ", "WaterAcres": "0.0", "Full_Name": "Kenai Fjords National Park"}},{"geometry": {"type": "Point", "coordinates": [-135.2567958171957, 59.675374126501005]}, "type": "Feature", "id": 211, "properties": {"Region_Ocean": "Alaska", "ShorelineMiles": "0.5", "Region": "Alaska", "UNIT_CODE": "KLGO", "Map_URL": "https://www.nps.gov/orgs/1439/upload/KLGO.pdf", "Park_URL": "https://www.nps.gov/KLGO", "WaterAcres": "33.0", "Full_Name": "Klondike Gold Rush National Historical Park"}},{"geometry": {"type": "Point", "coordinates": [-153.55777905366503, 60.566739146026244]}, "type": "Feature", "id": 216, "properties": {"Region_Ocean": "Alaska", "ShorelineMiles": "220.0", "Region": "Alaska", "UNIT_CODE": "LACL", "Map_URL": "https://www.nps.gov/orgs/1439/upload/LACL.pdf", "Park_URL": "https://www.nps.gov/LACL", "WaterAcres": "0.0", "Full_Name": "Lake Clark National Park and Preserve"}},{"geometry": {"type": "Point", "coordinates": [-135.3155331753475, 57.047136309663465]}, "type": "Feature", "id": 333, "properties": {"Region_Ocean": "Alaska", "ShorelineMiles": "1.2", "Region": "Alaska", "UNIT_CODE": "SITK", "Map_URL": "https://www.nps.gov/orgs/1439/upload/SITK.pdf", "Park_URL": "https://www.nps.gov/SITK", "WaterAcres": "55.0", "Full_Name": "Sitka National Historical Park"}},{"geometry": {"type": "Point", "coordinates": [-142.58575087516564, 61.39122694634337]}, "type": "Feature", "id": 381, "properties": {"Region_Ocean": "Alaska", "ShorelineMiles": "155.0", "Region": "Alaska", "UNIT_CODE": "WRST", "Map_URL": "https://www.nps.gov/orgs/1439/upload/WRST.pdf", "Park_URL": "https://www.nps.gov/WRST", "WaterAcres": "0.0", "Full_Name": "Wrangell-St. Elias National Park and Preserve"}}]}