{"type":"FeatureCollection","features":[{"geometry": {"type": "Point", "coordinates": [-157.81119702859354, 56.87192040026559]}, "type": "Feature", "id": 11, "properties": {"Region": "Alaska", "Map_URL": "http://www.nature.nps.gov/water/oceancoastal/assets/images/parkmaps/ANIA.pdf", "Park_URL": "http://www.nps.gov/ANIA", "Full_Name": "Aniakchak National Monument and Preserve", "UNIT_CODE": "ANIA"}},{"geometry": {"type": "Point", "coordinates": [-163.92080607507236, 65.7570484783541]}, "type": "Feature", "id": 23, "properties": {"Region": "Alaska", "Map_URL": "http://www.nature.nps.gov/water/oceancoastal/assets/images/parkmaps/BELA.pdf", "Park_URL": "http://www.nps.gov/BELA", "Full_Name": "Bering Land Bridge National Preserve", "UNIT_CODE": "BELA"}},{"geometry": {"type": "Point", "coordinates": [-163.50257451500838, 67.41218378652412]}, "type": "Feature", "id": 50, "properties": {"Region": "Alaska", "Map_URL": "http://www.nature.nps.gov/water/oceancoastal/assets/images/parkmaps/CAKR.pdf", "Park_URL": "http://www.nps.gov/CAKR", "Full_Name": "Cape Krusenstern National Monument", "UNIT_CODE": "CAKR"}},{"geometry": {"type": "Point", "coordinates": [-136.13594319832902, 58.75191954464255]}, "type": "Feature", "id": 151, "properties": {"Region": "Alaska", "Map_URL": "http://www.nature.nps.gov/water/oceancoastal/assets/images/parkmaps/GLBA.pdf", "Park_URL": "http://www.nps.gov/GLBA", "Full_Name": "Glacier Bay National Park and Preserve", "UNIT_CODE": "GLBA"}},{"geometry": {"type": "Point", "coordinates": [-155.70897106858996, 58.54672926164315]}, "type": "Feature", "id": 205, "properties": {"Region": "Alaska", "Map_URL": "http://www.nature.nps.gov/water/oceancoastal/assets/images/parkmaps/KATM.pdf", "Park_URL": "http://www.nps.gov/KATM", "Full_Name": "Katmai National Park and Preserve", "UNIT_CODE": "KATM"}},{"geometry": {"type": "Point", "coordinates": [-149.88152448868522, 59.953208123950475]}, "type": "Feature", "id": 206, "properties": {"Region": "Alaska", "Map_URL": "http://www.nature.nps.gov/water/oceancoastal/assets/images/parkmaps/KEFJ.pdf", "Park_URL": "http://www.nps.gov/KEFJ", "Full_Name": "Kenai Fjords National Park", "UNIT_CODE": "KEFJ"}},{"geometry": {"type": "Point", "coordinates": [-135.2567958171957, 59.675374126501005]}, "type": "Feature", "id": 211, "properties": {"Region": "Alaska", "Map_URL": "http://www.nature.nps.gov/water/oceancoastal/assets/images/parkmaps/KLGO.pdf", "Park_URL": "http://www.nps.gov/KLGO", "Full_Name": "Klondike Gold Rush National Historical Park", "UNIT_CODE": "KLGO"}},{"geometry": {"type": "Point", "coordinates": [-153.55777905366503, 60.566739146026244]}, "type": "Feature", "id": 216, "properties": {"Region": "Alaska", "Map_URL": "http://www.nature.nps.gov/water/oceancoastal/assets/images/parkmaps/LACL.pdf", "Park_URL": "http://www.nps.gov/LACL", "Full_Name": "Lake Clark National Park and Preserve", "UNIT_CODE": "LACL"}},{"geometry": {"type": "Point", "coordinates": [-135.3155331753475, 57.047136309663465]}, "type": "Feature", "id": 333, "properties": {"Region": "Alaska", "Map_URL": "http://www.nature.nps.gov/water/oceancoastal/assets/images/parkmaps/SITK.pdf", "Park_URL": "http://www.nps.gov/SITK", "Full_Name": "Sitka National Historical Park", "UNIT_CODE": "SITK"}},{"geometry": {"type": "Point", "coordinates": [-142.58575087516564, 61.39122694634337]}, "type": "Feature", "id": 381, "properties": {"Region": "Alaska", "Map_URL": "http://www.nature.nps.gov/water/oceancoastal/assets/images/parkmaps/WRST.pdf", "Park_URL": "http://www.nps.gov/WRST", "Full_Name": "Wrangell-St. Elias National Park and Preserve", "UNIT_CODE": "WRST"}}]}