{
"type": "FeatureCollection",
"crs": { "type": "name", "properties": { "name": "urn:ogc:def:crs:OGC:1.3:CRS84" } },
                                                                                
"features": [
{ "type": "Feature", "properties": { "Notes": "0.3 mile west of the Elkmont junction on Little River Road.", "Date_Time_": "None", "Other_Rema": "None", "Loc_Name": "Millsap", "Road_Desc": "Little River Gorge Road: Little River Gorge Parking #1" }, "geometry": { "type": "Point", "coordinates": [ -83.603948417305716, 35.66492828922145 ] } },
{ "type": "Feature", "properties": { "Notes": "On the Cades Cove loop road about 0.5 mile beyond the Missionary Baptist Church.", "Date_Time_": "October: One event per day, Monday – Friday, start time between 9 AM and noon.  No weekend events in October.", "Other_Rema": null, "Loc_Name": "Cades Cove: “Wildlife overlook”", "Road_Desc": "Cades Cove Loop Road: Native Plant Demonistration Plot Parking" }, "geometry": { "type": "Point", "coordinates": [ -83.832894097821423, 35.605876576841318 ] } },
{ "type": "Feature", "properties": { "Notes": "This overlook is on the exit side of the loop road, approx. 0.3 mile beyond the Sparks Lane junction.", "Date_Time_": "October: One event per day, Monday – Friday, start time between 9 AM and noon.  No weekend events October.", "Other_Rema": null, "Loc_Name": "Cades Cove: LeQuire Cemetery Overlook and adjacent field", "Road_Desc": "Cades Cove Loop Road: Lone Grove Parking" }, "geometry": { "type": "Point", "coordinates": [ -83.790152773486966, 35.594829531633629 ] } },
{ "type": "Feature", "properties": { "Notes": "On the Cove Mountain trail near park headquarters", "Date_Time_": "Events will be scheduled to avoid conflicts with park programs.  (One hour walks are scheduled for 11AM and 1 PM, March through October)", "Other_Rema": "No parking or waiting at trailhead from 7:30 AM to 5:00 PM on weekdays.  During those times, vehicles must be parked at Sugarlands Visitor Center.", "Loc_Name": "Cataract Falls", "Road_Desc": "Sugarlands Residence Road: Cove Mountain Trail" }, "geometry": { "type": "Point", "coordinates": [ -83.538906901682338, 35.689421083636169 ] } },
{ "type": "Feature", "properties": { "Notes": "Chimneys Picnic Area", "Date_Time_": "Closes at 8 p.m. from May 1 – August 31 and at sunset from Sep. 1-April 30. From May 25 thru Sept. 7 and all of October, 8 AM to 10 AM only.  No time restrictions on other dates.", "Other_Rema": null, "Loc_Name": "Chimneys Picnic Area", "Road_Desc": "Chimney Picnic Area #1" }, "geometry": { "type": "Point", "coordinates": [ -83.489179566948479, 35.636904310502501 ] } },
{ "type": "Feature", "properties": { "Notes": "The immediate vicinity (The observation tower and the trail leading to it are not part of the designated area.)", "Date_Time_": "None", "Other_Rema": "None", "Loc_Name": "Clingmans Dome parking area", "Road_Desc": "Clingmans Dome Road Parking #3" }, "geometry": { "type": "Point", "coordinates": [ -83.495268914464077, 35.556208555195489 ] } },
{ "type": "Feature", "properties": { "Notes": "Applications must list the specific overlook. (Overlooks are numbered from 1 to 4, beginning at the west end, i.e. the overlook closest to Hwy 321 is #1; the one closest to I-40 is #4.)", "Date_Time_": "None", "Other_Rema": "Maximum of 4 weddings per day total.", "Loc_Name": "Foothills Parkway East Overlook # 4", "Road_Desc": "Foothills Parkway Section 8a: Foothills Parkway Northeast Parking #4" }, "geometry": { "type": "Point", "coordinates": [ -83.196166775539893, 35.831661678112646 ] } },
{ "type": "Feature", "properties": { "Notes": "Applications must list the specific overlook. (Overlooks are numbered from 1 to 4, beginning at the west end, i.e. the overlook closest to Hwy 321 is #1; the one closest to I-40 is #4.)", "Date_Time_": null, "Other_Rema": "Maximum of 4 weddings per day total.", "Loc_Name": "Foothills Parkway East Overlook # 3", "Road_Desc": "Foothills Parkway Section 8a: Foothills Parkway Northeast Parking #3" }, "geometry": { "type": "Point", "coordinates": [ -83.210676533923362, 35.825012222949432 ] } },
{ "type": "Feature", "properties": { "Notes": "Applications must list the specific overlook. (Overlooks are numbered from 1 to 4, beginning at the west end, i.e. the overlook closest to Hwy 321 is #1; the one closest to I-40 is #4.)", "Date_Time_": null, "Other_Rema": "Maximum of 4 weddings per day total.", "Loc_Name": "Foothills Parkway East Overlook # 2", "Road_Desc": "Foothills Parkway Section 8a: Foothills Parkway Northeast Parking #2" }, "geometry": { "type": "Point", "coordinates": [ -83.224104912681568, 35.812334797431902 ] } },
{ "type": "Feature", "properties": { "Notes": "Applications must list the specific overlook. (Overlooks are numbered from 1 to 4, beginning at the west end, i.e. the overlook closest to Hwy 321 is #1; the one closest to I-40 is #4.)", "Date_Time_": null, "Other_Rema": "Maximum of 4 weddings per day total.", "Loc_Name": "Foothills Parkway East Overlook # 1", "Road_Desc": "Foothills Parkway Section 8a: Foothills Parkway Northeast Parking #1" }, "geometry": { "type": "Point", "coordinates": [ -83.236375454170783, 35.807346720197387 ] } },
{ "type": "Feature", "properties": { "Notes": "Gatlinburg By-pass overlooks and entrance (aka “picture”) sign.  Applications must list the specific overlook.   The south overlook is south of the Ski Mtn overpass; the north overlook is north of the overpass.  The entrance sign is on the north end", "Date_Time_": null, "Other_Rema": null, "Loc_Name": "Gatlinburg Overlook Parking Area #1", "Road_Desc": "Gatlinburg Bypass Road: Gatlinburg Overlook Parking Area #1" }, "geometry": { "type": "Point", "coordinates": [ -83.530272455149444, 35.711376076054357 ] } },
{ "type": "Feature", "properties": { "Notes": "Gatlinburg By-pass overlooks and entrance (aka “picture”) sign.  Applications must list the specific overlook.   The south overlook is south of the Ski Mtn overpass; the north overlook is north of the overpass.  The entrance sign is on the north end", "Date_Time_": null, "Other_Rema": null, "Loc_Name": "Gatlinburg Overlook Parking Area #2", "Road_Desc": "Gatlinburg Bypass Road: Gatlinburg Overlook Parking Area #1" }, "geometry": { "type": "Point", "coordinates": [ -83.52931324647659, 35.704288787652274 ] } },
{ "type": "Feature", "properties": { "Notes": "Gatlinburg By-pass overlooks and entrance (aka “picture”) sign.  Applications must list the specific overlook.   The south overlook is south of the Ski Mtn overpass; the north overlook is north of the overpass.  The entrance sign is on the north end", "Date_Time_": null, "Other_Rema": "Maximum of 3 cars at the picture sign.", "Loc_Name": "Gatlinburg Bypass Park Entrance Sign Parking", "Road_Desc": "Gatlinburg Bypass Road: Gatlinburg Bypass Park Entrance Sign Parking" }, "geometry": { "type": "Point", "coordinates": [ -83.521662733357545, 35.720454995672625 ] } },
{ "type": "Feature", "properties": { "Notes": "Specifically the area between U.S. 321 and the Greenbrier Ranger Station.  This includes roadside areas and the “beach” area along the Middle Prong of the Little Pigeon River.", "Date_Time_": "From May 25 thru Sept. 7, no events between 10 AM and 6 PM", "Other_Rema": null, "Loc_Name": "Greenbrier #1", "Road_Desc": "Greenbrier Road" }, "geometry": { "type": "Point", "coordinates": [ -83.408375223769639, 35.732298878739904 ] } },
{ "type": "Feature", "properties": { "Notes": "Specifically the area at the Old Settlers Trailhead, including the area adjacent to the river.", "Date_Time_": null, "Other_Rema": null, "Loc_Name": "Greenbrier #2", "Road_Desc": "Ramsey Prong Road: Old Settlers Trailhead Parking" }, "geometry": { "type": "Point", "coordinates": [ -83.380133192152343, 35.707739968776089 ] } },
{ "type": "Feature", "properties": { "Notes": null, "Date_Time_": null, "Other_Rema": null, "Loc_Name": "Heintooga Overlook", "Road_Desc": "Heintooga Ridge Road: Flat Creek Trail" }, "geometry": { "type": "Point", "coordinates": [ -83.180827086191741, 35.573078442932136 ] } },
{ "type": "Feature", "properties": { "Notes": "The pullout overlooking the lake", "Date_Time_": null, "Other_Rema": "Maximum of 15 cars and 30 people.", "Loc_Name": "Lakeview Drive", "Road_Desc": "Lakeview Drive East: Lakeview Drive East Parking #1" }, "geometry": { "type": "Point", "coordinates": [ -83.505295098069141, 35.456930725978076 ] } },
{ "type": "Feature", "properties": { "Notes": "Just east of Fighting Creek Gap", "Date_Time_": null, "Other_Rema": null, "Loc_Name": "Maloney Point", "Road_Desc": "Fighting Creek Gap Road: Maloney Point Parking" }, "geometry": { "type": "Point", "coordinates": [ -83.574423758149152, 35.673351570967675 ] } },
{ "type": "Feature", "properties": { "Notes": "Excluding the pavilion", "Date_Time_": "From May 25 thru Sept. 7 and all of October, 8 AM to 10 AM only.  No time restrictions at other dates.", "Other_Rema": "The west half of the picnic area is closed in the off season.", "Loc_Name": "Metcalf Bottoms Picnic Area", "Road_Desc": "Wear Cove Gap Road: Metcalf Bottoms Picnic Area Road North\/South" }, "geometry": { "type": "Point", "coordinates": [ -83.647930262847055, 35.678710652444877 ] } },
{ "type": "Feature", "properties": { "Notes": null, "Date_Time_": "From March through November, no events between 9 AM and 5 PM.", "Other_Rema": "1 event per day.", "Loc_Name": "Mingus Mill", "Road_Desc": "Newfound Gap Road South: Mingus Mill Access Road" }, "geometry": { "type": "Point", "coordinates": [ -83.309810196800996, 35.520103119789496 ] } },
{ "type": "Feature", "properties": { "Notes": "And the immediate vicinity", "Date_Time_": null, "Other_Rema": null, "Loc_Name": "Newfound Gap Parking Area", "Road_Desc": "Newfound Gap Road North: Newfound Gap Parking Area" }, "geometry": { "type": "Point", "coordinates": [ -83.425007443031618, 35.611092364665346 ] } },
{ "type": "Feature", "properties": { "Notes": null, "Date_Time_": "From May 25 thru Sept. 7 and all of October, 8 AM to 10 AM only.  No time restrictions at other dates.", "Other_Rema": null, "Loc_Name": "Noah Bud Ogle Cabin", "Road_Desc": "Cherokee Orchard Road: Ogle Place Parking: Noah 'Bud' Ogle Place Nature Trail" }, "geometry": { "type": "Point", "coordinates": [ -83.489714139669786, 35.682841350059505 ] } },
{ "type": "Feature", "properties": { "Notes": "Mile post 15.3 on the Newfound Gap Road", "Date_Time_": null, "Other_Rema": null, "Loc_Name": "Oconaluftee Overlook", "Road_Desc": "Newfound Gap Road South: Newfound Gap Parking Area # 4" }, "geometry": { "type": "Point", "coordinates": [ -83.436271937664358, 35.607548883712631 ] } },
{ "type": "Feature", "properties": { "Notes": "Parking area and nearby creek (mile post 26.7 on Newfound Gap Road", "Date_Time_": null, "Other_Rema": null, "Loc_Name": "Rock Wall Curve", "Road_Desc": "Newfound Gap Road South: NFG Pullout Parking At Mp 25.78" }, "geometry": { "type": "Point", "coordinates": [ -83.333096618911881, 35.564610381348864 ] } },
{ "type": "Feature", "properties": { "Notes": null, "Date_Time_": "October: One event per day, Monday – Friday, start time between 9 AM and noon.  No weekend events in October.", "Other_Rema": "Maximum of 6 cars and 50 people.", "Loc_Name": "Methodist Church", "Road_Desc": "Cades Cove Loop Road: Methodist Church Parking" }, "geometry": { "type": "Point", "coordinates": [ -83.817298337592419, 35.607293148054438 ] } },
{ "type": "Feature", "properties": { "Notes": null, "Date_Time_": "October: One event per day, Monday – Friday, start time between 9 AM and noon.  No weekend events in October", "Other_Rema": "Maximum of 6 cars and 50 people.", "Loc_Name": "Missionary Baptist Church", "Road_Desc": "Cades Cove Loop Road: Missionary Baptist Church Parking" }, "geometry": { "type": "Point", "coordinates": [ -83.826193657186394, 35.607978948138381 ] } },
{ "type": "Feature", "properties": { "Notes": null, "Date_Time_": "October: One event per day, Monday – Friday, start time between 9 AM and noon.  No weekend events in October.", "Other_Rema": "Maximum of 10 cars and 60 people.", "Loc_Name": "Primitive Baptist Church", "Road_Desc": "Cades Cove Loop Road: Primitive Baptist Church Road" }, "geometry": { "type": "Point", "coordinates": [ -83.813666395579261, 35.602009927266572 ] } },
{ "type": "Feature", "properties": { "Notes": null, "Date_Time_": null, "Other_Rema": "Maximum of 6 cars and 40 people.", "Loc_Name": "Smokemont Church", "Road_Desc": "Smokemont Road" }, "geometry": { "type": "Point", "coordinates": [ -83.30864953969342, 35.553449939428383 ] } },
{ "type": "Feature", "properties": { "Notes": null, "Date_Time_": null, "Other_Rema": "1 event per day; Maximum of 10 cars and 50 people.", "Loc_Name": "Palmer Chapel", "Road_Desc": "Cataloochee Entrance Road: Cataloochee Horse Trailhead Parking: Cataloochee Horse Trail" }, "geometry": { "type": "Point", "coordinates": [ -83.10931001294972, 35.626645888565278 ] } },
{ "type": "Feature", "properties": { "Notes": null, "Date_Time_": "Reservation Required", "Other_Rema": "The number of people is limited to 40.  See Recreation.gov or ask for a Spence Cabin packet for information about parking and other restrictions. •\tThe permit fee is waived for the Appalachian Clubhouse and Spence Cabin; however, a special use permit i", "Loc_Name": "Spence Cabin", "Road_Desc": "Little River Road" }, "geometry": { "type": "Point", "coordinates": [ -83.578585210695465, 35.653793116186527 ] } },
{ "type": "Feature", "properties": { "Notes": null, "Date_Time_": "Reservation Required", "Other_Rema": "The number of people is limited to 96.  See Recreation.gov or ask for a Appalachian Clubhouse packet for information about parking and other restrictions. •\tThe permit fee is waived for the Appalachian Clubhouse and Spence Cabin; however, a special use", "Loc_Name": "Appalachian Clubhouse", "Road_Desc": "Jakes Creek Road B: Elkmont Clubhouse Parking" }, "geometry": { "type": "Point", "coordinates": [ -83.581719121721108, 35.654038069392897 ] } },
{ "type": "Feature", "properties": { "Notes": null, "Date_Time_": "Reserveration Required", "Other_Rema": "The number of people (and cars) is pavilion-specific.", "Loc_Name": "Collins Creek Picnic Pavilion", "Road_Desc": "Newfound Gap Road South: Collins Creek Picnic Area Lower Loops" }, "geometry": { "type": "Point", "coordinates": [ -83.337469917659007, 35.56845921860554 ] } },
{ "type": "Feature", "properties": { "Notes": null, "Date_Time_": "Reservation Required", "Other_Rema": "The number of people (and cars) is pavilion-specific.", "Loc_Name": "Cosby Picnic Pavilion", "Road_Desc": "Cosby Entrance Road: Cosby Picnic Area Road" }, "geometry": { "type": "Point", "coordinates": [ -83.208949338982805, 35.757554888710722 ] } },
{ "type": "Feature", "properties": { "Notes": null, "Date_Time_": "Reservation Required", "Other_Rema": "The number of people (and cars) is pavilion-specific.", "Loc_Name": "Deep Creek Picnic Pavilion", "Road_Desc": "West Deep Creek Road: Deep Creek Picnic Area Road" }, "geometry": { "type": "Point", "coordinates": [ -83.438311750707243, 35.460461741245986 ] } },
{ "type": "Feature", "properties": { "Notes": null, "Date_Time_": "Reservation Required", "Other_Rema": "The number of people (and cars) is pavilion-specific.", "Loc_Name": "Greenbrier Picnic Pavilion", "Road_Desc": "Greenbriar Unpaved Road: Greenbrier Pavillion Parking" }, "geometry": { "type": "Point", "coordinates": [ -83.386530520814532, 35.703284395426437 ] } },
{ "type": "Feature", "properties": { "Notes": null, "Date_Time_": "Reservation Required", "Other_Rema": "The number of people (and cars) is pavilion-specific.", "Loc_Name": "Deep Creek Picnic Pavilion", "Road_Desc": "Big Creek Entrance Road: Big Creek Campground Loop Road" }, "geometry": { "type": "Point", "coordinates": [ -83.109952393667001, 35.75131069628862 ] } },
{ "type": "Feature", "properties": { "Notes": null, "Date_Time_": "Reservation Required", "Other_Rema": "The number of people (and cars) is pavilion-specific.", "Loc_Name": "Twin Creeks Picnic Pavilion", "Road_Desc": "Twin Creeks Research Lab Access: Twin Creeks Picnic Pavillion Access Road" }, "geometry": { "type": "Point", "coordinates": [ -83.502311425321906, 35.687505258140533 ] } },
{ "type": "Feature", "properties": { "Notes": null, "Date_Time_": "Reservation Required", "Other_Rema": "The number of people (and cars) is pavilion-specific.", "Loc_Name": "Metcalf Bottoms Picnic Pavlilion", "Road_Desc": "Wear Cove Gap Road: Metcalf Bottoms Picnic Area Road North" }, "geometry": { "type": "Point", "coordinates": [ -83.648949821543539, 35.679874182291748 ] } },
{ "type": "Feature", "properties": { "Notes": "Applications must list the specific overlook. (Overlooks are numbered from 1 to 14, beginning at the east end.  Most overlooks are marked with a sign bearing the overlook number.  Note that there is a number 4 ½!)", "Date_Time_": null, "Other_Rema": "Maximum of 4 weddings per day total.", "Loc_Name": "Foothills Parkway West Overlook # 1", "Road_Desc": "Foothills Parkway Section 8g: Foothills Parkway Southwest Parking # 16" }, "geometry": { "type": "Point", "coordinates": [ -83.843262996945384, 35.713985196696321 ] } },
{ "type": "Feature", "properties": { "Notes": null, "Date_Time_": null, "Other_Rema": null, "Loc_Name": "Foothills Parkway West Overlook # 02", "Road_Desc": "Foothills Parkway Section 8g: Foothills Parking Southwest Parking # 15" }, "geometry": { "type": "Point", "coordinates": [ -83.848230252059409, 35.7116159797406 ] } },
{ "type": "Feature", "properties": { "Notes": null, "Date_Time_": null, "Other_Rema": null, "Loc_Name": "Foothills Parkway West Overlook # 03", "Road_Desc": "Foothills Parkway Section 8g: Foothills Parkway Southwest Parking # 14" }, "geometry": { "type": "Point", "coordinates": [ -83.860142118250678, 35.706479969527948 ] } },
{ "type": "Feature", "properties": { "Notes": null, "Date_Time_": null, "Other_Rema": null, "Loc_Name": "Foothills Parkway West Overlook # 04", "Road_Desc": "Foothills Parkway Section 8g: Foothills Parkway Southwest Parking #13" }, "geometry": { "type": "Point", "coordinates": [ -83.868750922759929, 35.702550308607421 ] } },
{ "type": "Feature", "properties": { "Notes": null, "Date_Time_": null, "Other_Rema": null, "Loc_Name": "Foothills Parkway West Overlook # 05", "Road_Desc": "Foothills Parkway Section 8g: Foothills Parkway Southwest Parking # 12" }, "geometry": { "type": "Point", "coordinates": [ -83.873465127518301, 35.698409247704014 ] } },
{ "type": "Feature", "properties": { "Notes": null, "Date_Time_": null, "Other_Rema": null, "Loc_Name": "Foothills Parkway West Overlook # 06", "Road_Desc": "Foothills Parkway Section 8g: Foothills Parkway Southwest Parking # 10" }, "geometry": { "type": "Point", "coordinates": [ -83.891353048715615, 35.678077220997075 ] } },
{ "type": "Feature", "properties": { "Notes": null, "Date_Time_": null, "Other_Rema": null, "Loc_Name": "Foothills Parkway West Overlook # 05", "Road_Desc": "Foothills Parkway Section 8g:Foothills Parkway Southwest Parking # 11" }, "geometry": { "type": "Point", "coordinates": [ -83.891852124440248, 35.677918497618577 ] } },
{ "type": "Feature", "properties": { "Notes": null, "Date_Time_": null, "Other_Rema": null, "Loc_Name": "Foothills Parkway West Overlook # 07", "Road_Desc": "Foothills Parkway Section 8g: Foothills Parkway Southwest Parking # 9" }, "geometry": { "type": "Point", "coordinates": [ -83.899465685242973, 35.672653598050282 ] } },
{ "type": "Feature", "properties": { "Notes": null, "Date_Time_": null, "Other_Rema": null, "Loc_Name": "Foothills Parkway West Overlook # 08", "Road_Desc": "Foothills Parkway Section 8g: Foothills Parkway Southwest Parking #8" }, "geometry": { "type": "Point", "coordinates": [ -83.903508128947706, 35.670754194046232 ] } }
]
}
